topicId	tableId	cityId	cityName	venueName	venueCategory	lat	lon	colors
3	4117	4	"San Francisco"	"Goldsworthy Spire"	Outdoors & Recreation::Sculpture Garden	37.7917992493414	-122.459444403648	7
3	4117	4	"San Francisco"	"3838 California"	Professional & Other Places::Building	37.785951	-122.457486	7
3	4117	4	"San Francisco"	"Synapse Health Center"	Professional & Other Places::Medical Center::Doctor's Office	37.7867963185767	-122.453140196154	7
3	4117	4	"San Francisco"	"Presidio: Arguello Gate"	Outdoors & Recreation::Other Great Outdoors	37.7896160330289	-122.459524869919	7
3	4117	4	"San Francisco"	"T & R 76 Automotive Center"	Shop & Service::Gas Station / Garage	37.7859107765514	-122.459106445312	7
3	4117	4	"San Francisco"	"Dr.Koltzova-Rang"	Professional & Other Places::Medical Center::Doctor's Office	37.7861549022489	-122.456883132428	7
3	4117	4	"San Francisco"	"Presidio Private Golf Club"	Outdoors & Recreation::Athletic & Sport::Golf Course	37.7903536706101	-122.460780143738	7
3	4117	4	"San Francisco"	"Claire Lilienthal Elementary School"	Professional & Other Places::School	37.7873483642009	-122.458337146898	7
3	4117	4	"San Francisco"	"Temple Emanu-El"	Professional & Other Places::Spiritual Center::Synagogue	37.787094	-122.45947256	7
3	4117	4	"San Francisco"	"Walgreens"	Shop & Service::Drugstore / Pharmacy	37.7860836431951	-122.457004761789	7
3	4117	4	"San Francisco"	"Pasta Pomodoro"	Food::Italian Restaurant	37.7863241	-122.45369	7
3	4117	4	"San Francisco"	"synergy fitness"	Shop & Service::Gym / Fitness Center	37.7875882387161	-122.451521158218	7
3	4117	4	"San Francisco"	"76 Conoco Phillips"	Shop & Service::Gas Station / Garage	37.785848	-122.459055	7
3	4117	4	"San Francisco"	"Congregation Emanu-El"	Professional & Other Places::Spiritual Center::Temple	37.7869484954361	-122.459271464924	7
3	4117	4	"San Francisco"	"California Pacific Medical Center"	Professional & Other Places::Medical Center::Hospital	37.7863836753033	-122.456429785381	7
3	4117	4	"San Francisco"	"Golden Gate Obstetrics"	Professional & Other Places::Medical Center::Doctor's Office	37.786034	-122.457279	7
3	4117	4	"San Francisco"	"Picnix"	Food::American Restaurant	37.7867883977908	-122.457098748017	7
3	4117	4	"San Francisco"	"California Pacific Medical Center - Women & Children's Center"	Professional & Other Places::Medical Center::Doctor's Office	37.7864574629483	-122.454826469094	7
3	4117	4	"San Francisco"	"Presidio Way Veterinary Hospital"	Professional & Other Places::Medical Center	37.786378	-122.453752756119	7
3	4117	4	"San Francisco"	"Presidio Cafe"	Food::American Restaurant	37.7905393	-122.45989715	7
3	4117	4	"San Francisco"	"CPMC Labor and Delivery"	Professional & Other Places::Medical Center::Hospital	37.78633	-122.456311	7
3	4117	4	"San Francisco"	"St. John's Presbyterian Church"	Professional & Other Places::Spiritual Center::Church	37.78671798	-122.459593	7
3	4117	4	"San Francisco"	"California Pacific Orthopedics and Sports Medicine"	Professional & Other Places::Medical Center::Doctor's Office	37.7861484152906	-122.457496806399	7
3	4117	4	"San Francisco"	"CPMC Pediatric Emergency Room"	Professional & Other Places::Medical Center::Emergency Room	37.786309	-122.456363	7
3	4117	4	"San Francisco"	"California Pacific Medical Center - San Francisco"	Professional & Other Places::Medical Center::Hospital	37.786167	-122.457043	7
3	4117	4	"San Francisco"	"Bath Sense & More"	Shop & Service::Cosmetics Shop	37.78732516	-122.452073	7
3	4117	4	"San Francisco"	"Sociale"	Food::Italian Restaurant	37.786974	-122.453012	7
3	4117	4	"San Francisco"	"Patrick Richards Salon"	Shop & Service::Cosmetics Shop	37.787447	-122.452529466667	7
3	4117	4	"San Francisco"	"Julius Kahn Playground & Clubhouse"	Outdoors & Recreation::Playground	37.791079	-122.45389715	7
3	8808	4	"San Francisco"	"IDF 2011: Intel Developer Forum"	Professional & Other Places::Event Space	37.78366793	-122.403623	8
3	3600	0	"Pittsburgh"	"Dr. Catherine Udekwu"	Professional & Other Places::Medical Center::Doctor's Office	40.4361462593079	-79.9812090396881	0
3	3600	0	"Pittsburgh"	"Mercy Professional Office Building"	Professional & Other Places::Building	40.4368324279785	-79.9860687255859	0
3	3600	0	"Pittsburgh"	"Delta Chi Mancave"	College & University::Fraternity House	40.4352681848473	-79.98814659351	0
3	3600	0	"Pittsburgh"	"UPMC Mercy Emergency Room"	Professional & Other Places::Medical Center::Emergency Room	40.435858456261	-79.984610080719	0
3	3600	0	"Pittsburgh"	"Allegheny County CYF- Central Office"	Professional & Other Places::Building	40.4376525878906	-79.9862594604492	0
3	3600	0	"Pittsburgh"	"Mercy Hospital Cafeteria"	Professional & Other Places::Medical Center::Hospital	40.4362525939941	-79.9861679077148	0
3	3600	0	"Pittsburgh"	"Mercy OR 3"	Professional & Other Places::Medical Center::Hospital	40.4363136291504	-79.9851379394531	0
3	3600	0	"Pittsburgh"	"The Basement"	Nightlife Spot::Bar	40.4337501525879	-79.9847183227539	0
3	3600	0	"Pittsburgh"	"Rivers Casino"	Arts & Entertainment::Casino	40.433952331543	-79.9877700805664	0
3	3600	0	"Pittsburgh"	"James Simon's Sculpture Studio - Gist Street"	Professional & Other Places::Event Space	40.4368899900625	-79.979681000235	0
3	3600	0	"Pittsburgh"	"Lightspeed Grip and Lighting LLC"	Professional & Other Places::Building	40.4364709084347	-79.9794709682465	0
3	3600	0	"Pittsburgh"	"UPMC Mercy - Clinical Decision Unit"	Professional & Other Places::Medical Center::Hospital	40.4365199043676	-79.9847495555878	0
3	3600	0	"Pittsburgh"	"Paramount Pictures Film Exchange Building"	Arts & Entertainment::Movie Theater	40.4362487792969	-79.9817276000977	0
3	469	3	"Berkeley"	"7-Eleven"	Shop & Service::Food & Drink Shop::Liquor Store	37.8630892279603	-122.258380651474	9
3	469	3	"Berkeley"	"Dr. Robert Eppley (Orthopedist)"	Professional & Other Places::Medical Center	37.855879	-122.256412	9
3	469	3	"Berkeley"	"Mount Everest Restaurant"	Food::Indian Restaurant	37.863310738205	-122.258839077693	9
3	469	3	"Berkeley"	"Willard park"	Outdoors & Recreation::Park	37.8609292958799	-122.257061004639	9
3	469	3	"Berkeley"	"East Bay Pediatrics"	Professional & Other Places::Medical Center::Doctor's Office	37.8558191782858	-122.255847982711	9
3	469	3	"Berkeley"	"Willard Swimming Pool"	Outdoors & Recreation::Pool	37.8610987046053	-122.258509397507	9
3	469	3	"Berkeley"	"Cali Nails Spa"	Shop & Service::Cosmetics Shop	37.859362	-122.2591	9
3	469	3	"Berkeley"	"Looking Glass Photo"	Shop & Service::Camera Store	37.858711	-122.259545	9
3	469	3	"Berkeley"	"Halcyon Commons"	Outdoors & Recreation::Park	37.8545569040986	-122.260373366077	9
3	469	3	"Berkeley"	"Mokka"	Food::Coffee Shop	37.854502125	-122.259852	9
3	469	3	"Berkeley"	"Whole Foods Market"	Shop & Service::Food & Drink Shop::Grocery Store	37.8556187433643	-122.260151809552	9
3	469	3	"Berkeley"	"Sutter East Bay Medical Foundation"	Professional & Other Places::Medical Center	37.8584843873978	-122.259593	9
3	469	3	"Berkeley"	"Da Red Door Brothel"	Travel & Transport::Hotel::Bed & Breakfast	37.8618906833333	-122.257196983333	9
3	469	3	"Berkeley"	"Webster Orthopedics"	Professional & Other Places::Medical Center::Doctor's Office	37.85426	-122.257699	9
3	469	3	"Berkeley"	"Berkeley Orthodontics/Orthopedic Medical Group"	Professional & Other Places::Medical Center::Doctor's Office	37.8614127666667	-122.25600985	9
3	469	3	"Berkeley"	"Alta Bates Summit Medical Center: Alta Bates Campus"	Professional & Other Places::Medical Center::Hospital	37.8554161805993	-122.257565103051	9
3	469	3	"Berkeley"	"Chevron Station"	Shop & Service::Gas Station / Garage	37.85639323247	-122.260043621063	9
3	469	3	"Berkeley"	"Rose Garden Inn"	Travel & Transport::Hotel::Bed & Breakfast	37.859921	-122.259646	9
3	469	3	"Berkeley"	"Andronico's"	Shop & Service::Food & Drink Shop::Grocery Store	37.86204	-122.258514761925	9
3	469	3	"Berkeley"	"Origen"	::Food	37.85894403	-122.259439	9
3	469	3	"Berkeley"	"Care Plus CVS Pharmacy"	Shop & Service::Drugstore / Pharmacy	37.8552138325347	-122.259442825577	9
3	469	3	"Berkeley"	"Tai San"	Food::Chinese Restaurant	37.8590211982607	-122.259232345051	9
3	469	3	"Berkeley"	"Laura"	Nightlife Spot::Wine Bar	37.8619155	-122.257203	9
3	469	3	"Berkeley"	"Laconda da Eva"	Food::New American Restaurant	37.859135	-122.259664	9
3	469	3	"Berkeley"	"Alta Bates Summit Medical Center: Alta Bates Campus"	Professional & Other Places::Medical Center::Hospital	37.8554161805993	-122.257565103051	9
3	469	3	"Berkeley"	"The Joint"	Professional & Other Places::Medical Center	37.8619181053093	-122.259110487715	9
3	469	3	"Berkeley"	"Ineffable Music"	Arts & Entertainment::Music Venue	37.864042	-122.258946383333	9
3	469	3	"Berkeley"	"Subway"	Food::Sandwich Place	37.8626327514648	-122.258922457695	9
3	469	3	"Berkeley"	"Medical Building"	Professional & Other Places::Medical Center::Doctor's Office	37.856073075585	-122.256346504368	9
3	14953	4	"San Francisco"	"SOAR Medical Group"	Professional & Other Places::Medical Center::Dentist's Office	37.787427	-122.422799	3
3	14953	4	"San Francisco"	"Vespa San Francisco"	Shop & Service::Car Dealership	37.788127	-122.423511	3
3	14953	4	"San Francisco"	"Wok Shop Cafe"	Food::Chinese Restaurant	37.787412	-122.422194	3
3	14953	4	"San Francisco"	"Hotel Majestic"	Travel & Transport::Hotel	37.7871983481479	-122.425304477723	3
3	14953	4	"San Francisco"	"California Pacific Medical Center Medical Office Building"	Professional & Other Places::Medical Center::Doctor's Office	37.787413	-122.422975	3
3	14953	4	"San Francisco"	"Banksy Mural: 'Glitter Glasses' Rat"	Arts & Entertainment::Museum::Art Museum	37.788048	-122.421742	3
3	14953	4	"San Francisco"	"Sophie's Crepes - Japan Center SF CA 941115"	Food::Dessert Shop	37.7850629938605	-122.426073183384	3
3	14953	4	"San Francisco"	"Silk Hand & Foot Spa"	Shop & Service::Cosmetics Shop	37.7878057850592	-122.42347947051	3
3	14953	4	"San Francisco"	"Carillon Towers"	Professional & Other Places::Building	37.7839437935083	-122.424021445662	3
3	14953	4	"San Francisco"	"Queen Anne Hotel"	Travel & Transport::Hotel	37.7871317511539	-122.426490783691	3
3	14953	4	"San Francisco"	"Lower Pacific Heights"	Outdoors & Recreation::Other Great Outdoors	37.7873656124765	-122.425027963519	3
3	14953	4	"San Francisco"	"St Mark's Lutheran Church"	Professional & Other Places::Spiritual Center::Church	37.7844262128402	-122.423496061628	3
3	14953	4	"San Francisco"	"Fanta Deluxe Cleaners"	Shop & Service::Laundry Service	37.7883154255601	-122.423490531255	3
3	14953	4	"San Francisco"	"Laramar SF Urban Apartments"	Professional & Other Places::Office	37.788333	-122.423433	3
3	14953	4	"San Francisco"	"The Copper Quarter"	Shop & Service::Laundry Service	37.788454	-122.423663	3
3	14953	4	"San Francisco"	"Muni 38 Outbound Geary & Franklin"	Travel & Transport::Bus Station	37.7855567	-122.422858783333	3
3	14953	4	"San Francisco"	"Cathedral Hill Plaza"	Professional & Other Places::Building	37.7859677291818	-122.424950539411	3
3	14953	4	"San Francisco"	"Payne Mansion"	Professional & Other Places::Event Space	37.787191	-122.423873	3
3	14953	4	"San Francisco"	"Sutter Pacific Medical Foundation	Professional & Other Places::Medical Center::Doctor's Office	37.7871233073	-122.42284047	3
3	14953	4	"San Francisco"	"Sutter Plaza"	Professional & Other Places::Building	37.78728878306	-122.423131056435	3
3	14953	4	"San Francisco"	"Dunlap Party Train"	Nightlife Spot::Speakeasy	37.790304	-122.427443	3
3	14953	4	"San Francisco"	"The Regency Ballroom"	Arts & Entertainment::Concert Hall	37.7879297865128	-122.421588065915	3
3	14953	4	"San Francisco"	"Walgreens"	Shop & Service::Drugstore / Pharmacy	37.7867098594613	-122.423424166766	3
3	14953	4	"San Francisco"	"Trinity Episcopal Church"	Professional & Other Places::Spiritual Center::Church	37.7883711790701	-122.42492288793	3
3	14953	4	"San Francisco"	"SFGMC Rehearsal at FUUMC"	Arts & Entertainment::Music Venue	37.785258	-122.423357	3
3	14953	4	"San Francisco"	"CPMC - Endocrinology"	Professional & Other Places::Medical Center::Doctor's Office	37.787177	-122.422841	3
3	14953	4	"San Francisco"	"Soko Gakuen Japanese Language School"	College & University::General College & University	37.7884301	-122.426454	3
3	14953	4	"San Francisco"	"Kaka Udon Kitchen"	Food::Sushi Restaurant	37.7887214379164	-122.423744928077	3
3	14953	4	"San Francisco"	"Latch	Professional & Other Places::Medical Center::Doctor's Office	37.7873076885397	-122.421971261501	3
3	14953	4	"San Francisco"	"Muni 38 Inbound Bus Stop"	Travel & Transport::Bus Station::Bus Line	37.7849271990069	-122.423894405365	3
3	14953	4	"San Francisco"	"A & M Market Liquor"	Shop & Service::Convenience Store	37.7870045672407	-122.426887750626	3
3	14953	4	"San Francisco"	"Cathedral of St. Mary of the Assumption"	Professional & Other Places::Spiritual Center::Church	37.7846655473785	-122.425144099574	3
3	14953	4	"San Francisco"	"Therapeia Massage"	Shop & Service::Spa / Massage	37.787665	-122.427538283333	3
3	8965	4	"San Francisco"	"Kaiser Permanente Main Pharmacy"	Shop & Service::Drugstore / Pharmacy	37.7839380404869	-122.440561401858	5
3	8965	4	"San Francisco"	"Osher Center for Integrative Medicine"	Professional & Other Places::Medical Center::Hospital	37.785211363982	-122.439754095789	5
3	8965	4	"San Francisco"	"UCSF Medical Center At Mount Zion"	Professional & Other Places::Medical Center::Hospital	37.7851628069321	-122.439560562588	5
3	8965	4	"San Francisco"	"Stewarts Market"	Shop & Service::Food & Drink Shop::Liquor Store	37.785285	-122.4417	5
3	8965	4	"San Francisco"	"Sugar Bowl Bakery & Cafe"	Food::Bakery	37.783179	-122.44063	5
3	8965	4	"San Francisco"	"Glaucoma Consultants of the Bay Area"	Professional & Other Places::Medical Center::Doctor's Office	37.783946	-122.438062	5
3	8965	4	"San Francisco"	"Timeless Treasures"	Shop & Service::Antique Shop	37.785762	-122.436196	5
3	8965	4	"San Francisco"	"38 Geary bus stop At Divisidero"	Travel & Transport::Bus Station::Bus Line	37.7833415	-122.439534317515	5
3	8965	4	"San Francisco"	"The NEW Pine Street"	Nightlife Spot::Sake Bar	37.7873839099418	-122.439908922092	5
3	8965	4	"San Francisco"	"UCSF Otolaryngology	Professional & Other Places::Medical Center	37.785314	-122.43961296	5
3	8965	4	"San Francisco"	"pearl market"	Food::Deli / Bodega	37.7806807764099	-122.439024197279	5
3	8965	4	"San Francisco"	"My Father's Kitchen"	Food::Vietnamese Restaurant	37.7849950323612	-122.439676523209	5
3	8965	4	"San Francisco"	"Western Addition Branch Library"	Professional & Other Places::Library	37.7841370955653	-122.437735803413	5
3	8965	4	"San Francisco"	"Walgreens"	Shop & Service::Drugstore / Pharmacy	37.7823503857236	-122.439571621638	5
3	8965	4	"San Francisco"	"Kaiser Permanente Eye Center"	Professional & Other Places::Medical Center::Doctor's Office	37.78435478	-122.440009	5
3	8965	4	"San Francisco"	"Kaiser Permanente Physical Threapy"	Professional & Other Places::Medical Center::Doctor's Office	37.7845371560111	-122.439923286438	5
3	8965	4	"San Francisco"	"920 Special"	Nightlife Spot::Nightclub	37.7852414282782	-122.440898699126	5
3	8965	4	"San Francisco"	"KIPP SF Bay"	Professional & Other Places::School	37.782727	-122.437214	5
3	8965	4	"San Francisco"	"SF MUNI Divisadero at Geary Blvd Outbound to The Castro"	Travel & Transport::Bus Station::Bus Line	37.7830354	-122.43950197	5
3	8965	4	"San Francisco"	"Kaiser Permanente Medical Center"	Professional & Other Places::Medical Center::Hospital	37.783275899331	-122.44051716607	5
3	8965	4	"San Francisco"	"Byron Russell Accupuncture"	Professional & Other Places::Medical Center	37.783969	-122.438091	5
3	8965	4	"San Francisco"	"Opa Market"	Food::Café	37.783852	-122.4414524	5
3	8965	4	"San Francisco"	"Kaiser Permanente - Laboratory"	Professional & Other Places::Medical Center	37.783821	-122.440567	5
3	8965	4	"San Francisco"	"Pete's Deli & Cafe"	Food::Deli / Bodega	37.785263	-122.43991	5
3	8965	4	"San Francisco"	"UCSF Lab"	Professional & Other Places::Medical Center::Doctor's Office	37.7843492094016	-122.440107984146	5
3	8965	4	"San Francisco"	"Attention to Detail Barber Gallery"	Shop & Service::Salon / Barbershop	37.785688	-122.436222	5
3	8965	4	"San Francisco"	"Kaiser Permanente Main Pharmacy"	Shop & Service::Drugstore / Pharmacy	37.7839380404869	-122.440561401858	5
3	8965	4	"San Francisco"	"Kaiser Pediatrics 6th Floor"	Professional & Other Places::Medical Center::Doctor's Office	37.78153465676	-122.441559257118	5
3	8965	4	"San Francisco"	"Maxine Hall Health Center"	Professional & Other Places::Medical Center::Doctor's Office	37.7823070880499	-122.436039447784	5
3	8965	4	"San Francisco"	"YogaWorks"	Shop & Service::Gym / Fitness Center::Yoga Studio	37.786506	-122.440185	5
3	8965	4	"San Francisco"	"Muni 38	Travel & Transport::Bus Station	37.7832010092818	-122.439798331899	5
3	8965	4	"San Francisco"	"Sofalicious"	Residence::Residential Building (Apartment / Condo)	37.786809038441	-122.440002923665	5
3	8965	4	"San Francisco"	"City Church Sutter Street"	Professional & Other Places::Spiritual Center::Church	37.78537	-122.440795	5
3	8965	4	"San Francisco"	"Luxor Cab"	Travel & Transport::Taxi	37.7848899364471	-122.43865	5
3	8965	4	"San Francisco"	"California Tennis Club"	Outdoors & Recreation::Athletic & Sport::Tennis Court	37.786007	-122.438082	5
3	8965	4	"San Francisco"	"Kaiser Permanente"	Professional & Other Places::Medical Center::Hospital	37.7824897766113	-122.443626403809	5
3	8965	4	"San Francisco"	"UCSF Medical Center at Mount Zion - 1545 Divisadero St."	Professional & Other Places::Medical Center::Hospital	37.7844501570352	-122.439671153033	5
3	8965	4	"San Francisco"	"Metro Dental"	::Professional & Other Places	37.7843421337412	-122.438587546349	5
3	8965	4	"San Francisco"	"Post Street Orthopaedics & Sports Medicine"	Professional & Other Places::Medical Center::Doctor's Office	37.7840748	-122.439198	5
3	8965	4	"San Francisco"	"Jewish Family and Children's Services"	Professional & Other Places::Building	37.7845464654427	-122.437956988035	5
3	8965	4	"San Francisco"	"Nance's Sunshine Center"	Shop & Service::Laundry Service	37.788039	-122.441051	5
3	8965	4	"San Francisco"	"Gateway High School"	Professional & Other Places::School::High School	37.78329	-122.43772	5
3	8965	4	"San Francisco"	"Holydog"	Food::Hot Dog Joint	37.7832763011764	-122.438039932148	5
3	8965	4	"San Francisco"	"38	Travel & Transport::Bus Station	37.7834018291082	-122.439698800625	5
3	8965	4	"San Francisco"	"Dr. Joel McFaul DDS"	Professional & Other Places::Medical Center::Dentist's Office	37.785725	-122.438411	5
3	8965	4	"San Francisco"	"Kaiser Permanente"	Professional & Other Places::Medical Center::Doctor's Office	37.783451808146	-122.43994474411	5
3	8965	4	"San Francisco"	"Kaiser Permanente	Professional & Other Places::Medical Center	37.7832008966947	-122.439897863078	5
3	8965	4	"San Francisco"	"Russian Center of SF"	Arts & Entertainment::Concert Hall	37.7852906706039	-122.440937405301	5
3	8965	4	"San Francisco"	"kaiser dermatology 8th floor"	Professional & Other Places::Medical Center::Doctor's Office	37.78310793	-122.441927172621	5
3	8965	4	"San Francisco"	"Godzila Sushi"	Food::Sushi Restaurant	37.786223	-122.440042	5
3	8965	4	"San Francisco"	"Chandler Properties"	Professional & Other Places::Building	37.787939	-122.440333	5
3	8965	4	"San Francisco"	"Biotherapy Clinic"	Professional & Other Places::Medical Center	37.784437	-122.439256	5
3	8965	4	"San Francisco"	"Fishbowl Bar & Grill"	Nightlife Spot::Sports Bar	37.786940975202	-122.440127134323	5
3	8965	4	"San Francisco"	"UCSF Audiology"	Professional & Other Places::Medical Center	37.7843901676207	-122.440229632993	5
3	8965	4	"San Francisco"	"Lower Pacific Heights"	Outdoors & Recreation::Other Great Outdoors	37.7859830892673	-122.436729407488	5
3	8965	4	"San Francisco"	"Westside Projects"	Residence::Residential Building (Apartment / Condo)	37.78482338	-122.44153023	5
3	8965	4	"San Francisco"	"Utoepia"	Shop & Service::Spa / Massage	37.785593	-122.439961	5
3	8965	4	"San Francisco"	"F Lofrano & Son"	Shop & Service::Automotive Shop	37.785865	-122.440064	5
3	8965	4	"San Francisco"	"UCSF Helen Diller Cancer Center"	Professional & Other Places::Medical Center::Hospital	37.784757	-122.439632	5
3	8965	4	"San Francisco"	"Radfordshire"	Travel & Transport::Hotel::Resort	37.781933	-122.441069	5
3	8965	4	"San Francisco"	"Mt. Zion Hospital"	Professional & Other Places::Medical Center::Hospital	37.7850846266827	-122.439101610998	5
3	8965	4	"San Francisco"	"Kaiser Permanente Radiology (3rd floor)"	Professional & Other Places::Medical Center::Doctor's Office	37.7837358586053	-122.440511636595	5
3	8965	4	"San Francisco"	"Zazang Korean Noodle"	Food::Korean Restaurant	37.783126359967	-122.44205434875	5
3	8965	4	"San Francisco"	"Ocean Taqueria #2"	Food::Mexican Restaurant	37.786735	-122.44000729	5
3	8965	4	"San Francisco"	"Kaiser Permanente	Professional & Other Places::Medical Center::Doctor's Office	37.7835093966917	-122.440627755504	5
3	8965	4	"San Francisco"	"LabCorp"	Professional & Other Places::Medical Center	37.7856922	-122.438294	5
3	8965	4	"San Francisco"	"Straits Cafe"	Food::Restaurant	37.7811539456797	-122.440218574013	5
3	291	5	"San Leandro"	"Good Samaritan Veterinary Hospital"	Professional & Other Places::Medical Center::Hospital	37.71300728	-122.13922	1
3	291	5	"San Leandro"	"Ghirardelli Factory Outlet"	Shop & Service::Candy Store	37.7111704945622	-122.143560533451	1
3	291	5	"San Leandro"	"San Leandro Hospital"	Professional & Other Places::Medical Center::Hospital	37.7129612787476	-122.143299920645	1
3	291	5	"San Leandro"	"San Leandro Family Practice"	Professional & Other Places::Medical Center::Doctor's Office	37.7141091711071	-122.142391204834	1
3	291	5	"San Leandro"	"Ernie's Sea Food"	Food::Seafood Restaurant	37.7150463	-122.142728366667	1
3	3930	0	"Pittsburgh"	"AGH Gift Shop"	Shop & Service::Gift Shop	40.4569396972656	-80.0035171508789	0
3	3930	0	"Pittsburgh"	"Allegheny General Hospital"	Professional & Other Places::Medical Center::Hospital	40.4571195298917	-80.003342628479	0
3	3930	0	"Pittsburgh"	"The North Side"	Outdoors & Recreation::Other Great Outdoors	40.4563381799584	-80.0019410157607	0
3	3930	0	"Pittsburgh"	"Allegheny General Hospital"	Professional & Other Places::Medical Center::Hospital	40.4571195298917	-80.003342628479	0
3	3930	0	"Pittsburgh"	"Crazy Mocha"	Food::Coffee Shop	40.4556644887352	-80.0066860970312	0
3	3930	0	"Pittsburgh"	"Kindred Hospital"	Professional & Other Places::Medical Center::Hospital	40.454231262207	-80.0089950561523	0
3	3930	0	"Pittsburgh"	"James Street GastroPub & Speakeasy"	Arts & Entertainment::Music Venue::Jazz Club	40.4543915022335	-80.0009908763042	0
3	3930	0	"Pittsburgh"	"Rock Monster (Fineview Field)"	Outdoors & Recreation::Field	40.459494	-80.004167	0
3	3930	0	"Pittsburgh"	"Pasta Too"	Food::American Restaurant	40.4562610483891	-80.0067570801698	0
3	3930	0	"Pittsburgh"	"Federal North"	Professional & Other Places::Medical Center::Doctor's Office	40.4565734863281	-80.0071029663086	0
3	2226	1	"Oakland"	"Kaiser Permanente Medical Center"	Professional & Other Places::Medical Center::Hospital	37.8248618983909	-122.258207631295	6
3	2226	1	"Oakland"	"Webster Surgery Center"	Professional & Other Places::Medical Center::Hospital	37.821373	-122.262042	6
3	2226	1	"Oakland"	"Sana Market & Liquor"	Shop & Service::Food & Drink Shop::Liquor Store	37.825605	-122.265025	6
3	2226	1	"Oakland"	"Summit Cafe"	Food::Café	37.818923	-122.26450986	6
3	2226	1	"Oakland"	"Red Bull King Of The Rock"	Outdoors & Recreation::Athletic & Sport::Basketball Court	37.8247286481331	-122.261104499342	6
3	2226	1	"Oakland"	"4 Less Smog Check"	Shop & Service::Automotive Shop	37.817162	-122.263566	6
3	2226	1	"Oakland"	"Broadway Volkswagen"	Shop & Service::Automotive Shop	37.816162	-122.263569	6
3	2226	1	"Oakland"	"Kaiser Permanente Oakland Fabiola Bldg"	Professional & Other Places::Medical Center::Doctor's Office	37.8248434406103	-122.256141556857	6
3	2226	1	"Oakland"	"Cato's Ale House"	Nightlife Spot::Pub	37.824939	-122.254591	6
3	2226	1	"Oakland"	"Summit Bank"	Shop & Service::Bank	37.818633	-122.262429	6
3	2226	1	"Oakland"	"Kaiser Permanente Optometry"	Professional & Other Places::Medical Center	37.8243529733959	-122.256640077142	6
3	2226	1	"Oakland"	"Phat Matt's BBQ"	Food::BBQ Joint	37.8227426031173	-122.266244446178	6
3	2226	1	"Oakland"	"Walgreens"	Shop & Service::Drugstore / Pharmacy	37.8226123127722	-122.265801357078	6
3	2226	1	"Oakland"	"Kaiser Permanente"	Professional & Other Places::Medical Center	37.8249473571777	-122.258255004883	6
3	2226	1	"Oakland"	"Samuel Merritt University Health Science Simulation Center"	College & University::College Lab	37.820937055393	-122.264261608129	6
3	2226	1	"Oakland"	"Alta Bates Summit Medical Center"	Professional & Other Places::Medical Center::Hospital	37.8220418139832	-122.262756675482	6
3	2226	1	"Oakland"	"Givaé"	Shop & Service::Cosmetics Shop	37.8247685669482	-122.254732847214	6
3	2226	1	"Oakland"	"Kaiser Permenente Emergency Room"	Professional & Other Places::Medical Center::Emergency Room	37.824744	-122.256381	6
3	2226	1	"Oakland"	"Lee`s Donuts & Croissants"	Food::Donut Shop	37.829444	-122.264754	6
3	2226	1	"Oakland"	"Bay Wolf"	Food::American Restaurant	37.824609	-122.25491802	6
3	2226	1	"Oakland"	"Kang Tong Degi"	Food::Korean Restaurant	37.8254932165146	-122.26526	6
3	2226	1	"Oakland"	"Egbert Souse's"	Nightlife Spot::Bar	37.823383065564	-122.256446208419	6
3	2226	1	"Oakland"	"Kaiser Permanente Medical Center - Oakland"	Professional & Other Places::Medical Center::Hospital	37.8249357062721	-122.256712085435	6
3	2226	1	"Oakland"	"Eli's Mile High Club"	Nightlife Spot::Dive Bar	37.8257741302628	-122.269761400537	6
3	2226	1	"Oakland"	"Grocery Outlet"	Shop & Service::Miscellaneous Shop	37.8242503280419	-122.262406125699	6
3	2226	1	"Oakland"	"Kaiser Permanente"	Professional & Other Places::Medical Center	37.8238533044583	-122.255880832672	6
3	2226	1	"Oakland"	"On Bart"	Travel & Transport::Train Station::Train	37.8236025020671	-122.268819865083	6
3	2226	1	"Oakland"	"Kaiser MRI"	Professional & Other Places::Medical Center::Hospital	37.825601	-122.25768327713	6
3	2226	1	"Oakland"	"Kaiser Permanente MRI unit"	Professional & Other Places::Medical Center::Hospital	37.8250898235316	-122.257947297042	6
3	2226	1	"Oakland"	"3rd World!!"	Outdoors & Recreation::Other Great Outdoors	37.8227862035547	-122.26617798293	6
3	2226	1	"Oakland"	"Frisbie Funhaus"	Professional & Other Places::Building	37.818476	-122.258616	6
3	2226	1	"Oakland"	"Oakland Medical Group"	Professional & Other Places::Medical Center::Doctor's Office	37.8168170926108	-122.265906590906	6
3	2226	1	"Oakland"	"Norcal Imaging"	Professional & Other Places::Medical Center	37.820959	-122.266502	6
3	2226	1	"Oakland"	"California Highway Patrol"	Professional & Other Places::Government Building::Police Station	37.824747	-122.2660168	6
3	2226	1	"Oakland"	"Mosswood Dog Park"	Outdoors & Recreation::Dog Run	37.82342564	-122.26179483	6
3	2226	1	"Oakland"	"zahara deli & coffee"	Food::Café	37.8210671616261	-122.266288754986	6
3	2226	1	"Oakland"	"Drunken Fish"	Food::Sushi Restaurant	37.82086218	-122.26056	6
3	2226	1	"Oakland"	"China Garlic"	Food::Chinese Restaurant	37.8233513514208	-122.256113861218	6
3	2226	1	"Oakland"	"Neldam's Bakery"	Food::Bakery	37.822566986084	-122.266487121582	6
3	2226	1	"Oakland"	"Pacific Ring Sports"	Shop & Service::Gym / Fitness Center::Gym	37.8288437969976	-122.264001288662	6
3	2226	1	"Oakland"	"SFO Bound BART"	Travel & Transport::Light Rail	37.8224220275879	-122.26912689209	6
3	2226	1	"Oakland"	"Broadway Car Wash"	Shop & Service::Gas Station / Garage	37.8275170958882	-122.25733246256	6
3	2226	1	"Oakland"	"Glamor Beauty Supply"	Shop & Service::Cosmetics Shop	37.829398	-122.264959	6
3	2226	1	"Oakland"	"Dan Sung Sa"	Food::Korean Restaurant	37.8171569108963	-122.267934	6
3	2226	1	"Oakland"	"North Oakland Family Practice"	Professional & Other Places::Medical Center::Doctor's Office	37.81995	-122.266661	6
3	2226	1	"Oakland"	"76"	Shop & Service::Gas Station / Garage	37.8274460360491	-122.257349079755	6
3	2226	1	"Oakland"	"SubRosa Coffee"	Food::Coffee Shop	37.828598	-122.260749	6
3	2226	1	"Oakland"	"Cafe Dejena"	Food::Café	37.829629700423	-122.268626018515	6
3	2226	1	"Oakland"	"Kaiser Permanente Fabiola Pharmacy	Professional & Other Places::Medical Center::Hospital	37.8252908816504	-122.256291113187	6
3	2226	1	"Oakland"	"Alta Bates Summit Medical Center Providence Pavilion"	Professional & Other Places::Medical Center::Hospital	37.8201023062608	-122.264128679119	6
3	2226	1	"Oakland"	"Grocery Outlet"	Shop & Service::Food & Drink Shop::Grocery Store	37.8176174967538	-122.261896554721	6
3	2226	1	"Oakland"	"Dr Allen Bott	Professional & Other Places::Medical Center::Doctor's Office	37.81787225	-122.26536235	6
3	2226	1	"Oakland"	"Kaiser Dermatology"	Professional & Other Places::Medical Center::Doctor's Office	37.8257595323437	-122.258202092275	6
3	2226	1	"Oakland"	"American Red Cross Bay Area"	Professional & Other Places::Building	37.8266060162882	-122.257421087569	6
3	2226	1	"Oakland"	"Samuel Merritt University"	College & University::Medical School	37.8198198156174	-122.266089365202	6
3	2226	1	"Oakland"	"tjs stank litterbox"	Outdoors & Recreation::Farm	37.8220748901367	-122.264419555664	6
3	2226	1	"Oakland"	"Oasis Food Market"	Food::Middle Eastern Restaurant	37.819829	-122.267169316667	6
3	2226	1	"Oakland"	"Tropix"	Food::Caribbean Restaurant	37.8240072727203	-122.255223	6
3	2226	1	"Oakland"	"Peralta Medical Office Building"	Professional & Other Places::Medical Center::Doctor's Office	37.8197325726591	-122.265978592939	6
3	2226	1	"Oakland"	"Mosswood Park Basketball Court"	Outdoors & Recreation::Athletic & Sport::Basketball Court	37.8247442874859	-122.261259587572	6
3	2226	1	"Oakland"	"7-Eleven"	Food::Snack Place	37.828557	-122.25575	6
3	2226	1	"Oakland"	"Kerry House"	Nightlife Spot::Bar	37.8241583932161	-122.255301475525	6
3	2226	1	"Oakland"	"elegant nails and spa"	Shop & Service::Salon / Barbershop	37.824772	-122.25468	6
3	2226	1	"Oakland"	"Honda of Oakland"	Shop & Service::Automotive Shop	37.8214983581508	-122.260705700001	6
3	2226	1	"Oakland"	"Better Booty Body House!"	Arts & Entertainment::Comedy Club	37.8220394959406	-122.255141956722	6
3	2226	1	"Oakland"	"Kaiser Permanente Medical Center - Mosswood Building"	Professional & Other Places::Medical Center::Doctor's Office	37.8230357374509	-122.259437286621	6
3	2226	1	"Oakland"	"1-2-3-4 Go! Records"	Shop & Service::Music Store	37.8285997028104	-122.260423216231	6
3	2226	1	"Oakland"	"Panama Red Coffee Co. - Oakland"	Food::Coffee Shop	37.8251457106393	-122.256113861218	6
3	2226	1	"Oakland"	"Beauty's Bagel Shop"	Food::Bagel Shop	37.8277849266815	-122.264677010217	6
3	2226	1	"Oakland"	"Broadway Smog - Tuneup Center"	Professional & Other Places::Building	37.819514	-122.261468	6
3	2226	1	"Oakland"	"Family Practice Medical Group of Oakland (Office of Dr. Whitley & Dr. Beltran)"	Professional & Other Places::Medical Center::Doctor's Office	37.8190113452881	-122.264128679119	6
3	2226	1	"Oakland"	"Sushi Plus"	Food::Sushi Restaurant	37.827735	-122.26462	6
3	2226	1	"Oakland"	"MacArthur BART Parking Lot"	Professional & Other Places::Parking	37.828939533643	-122.266792766387	6
3	2226	1	"Oakland"	"Broadway Liquors"	Shop & Service::Convenience Store	37.817277	-122.26286947	6
3	2226	1	"Oakland"	"Zipcar BART Station: MacArthur"	Travel & Transport::General Travel	37.82891662	-122.267068	6
3	2226	1	"Oakland"	"Ohgane Korean BBQ"	Food::Korean Restaurant	37.827349076804	-122.257398931324	6
3	2226	1	"Oakland"	"Children's Hospital Oakland- 5th Floor Summit Unit"	Professional & Other Places::Medical Center::Hospital	37.82060675	-122.264139	6
3	2226	1	"Oakland"	"Kaiser's Parking Lot"	Professional & Other Places::Parking	37.824758	-122.256004214287	6
3	2226	1	"Oakland"	"1 Berkley/Bay Fair"	Travel & Transport::Bus Station::Bus Line	37.8228356896537	-122.266161367112	6
3	2226	1	"Oakland"	"Jupiter & Saturn"	Outdoors & Recreation::Campground	37.82209737	-122.27196511	6
3	2226	1	"Oakland"	"Alta Bates Family Resource Center"	Professional & Other Places::Medical Center::Hospital	37.82148958	-122.26308547	6
3	2226	1	"Oakland"	"Flying Yoga"	Shop & Service::Gym / Fitness Center::Yoga Studio	37.8318178	-122.2636516	6
3	2226	1	"Oakland"	"Beebe Memorial Cathedral"	Professional & Other Places::Spiritual Center::Church	37.828198029881	-122.264372382178	6
3	2226	1	"Oakland"	"Mosswood Park & Recreation Center"	Outdoors & Recreation::Athletic & Sport::Basketball Court	37.8235863507606	-122.261245250702	6
3	2226	1	"Oakland"	"Lucy's Bourbon And Pastry Emporium"	::Food	37.817019	-122.257727	6
3	2226	1	"Oakland"	"Mercedes Benz of Oakland"	Shop & Service::Automotive Shop	37.8177791833878	-122.26304542	6
3	2226	1	"Oakland"	"Emery Go-Round - Hollis North"	Travel & Transport::Bus Station::Bus Line	37.8286646676447	-122.266405065521	6
3	2226	1	"Oakland"	"The Surgery Center"	Professional & Other Places::Medical Center::Hospital	37.828029	-122.26501485	6
3	2226	1	"Oakland"	"First Surgical Consultants"	Professional & Other Places::Medical Center::Doctor's Office	37.8207372263691	-122.26324248148	6
3	2226	1	"Oakland"	"eurythMEX"	Arts & Entertainment::General Entertainment	37.82266	-122.267438	6
3	2226	1	"Oakland"	"thunderpussy manor"	Nightlife Spot::Strip Club	37.8216498482048	-122.266759872437	6
3	2226	1	"Oakland"	"sadieDey's cafe oakland"	Food::Coffee Shop	37.8311848640442	-122.263844	6
3	2226	1	"Oakland"	"Quest diagnostics"	Professional & Other Places::Medical Center::Doctor's Office	37.8222403060612	-122.26617798293	6
3	2226	1	"Oakland"	"Alta Bates Summit Medical Center"	Professional & Other Places::Medical Center::Hospital	37.8220418139832	-122.262756675482	6
3	2226	1	"Oakland"	"XYZ Motors"	Shop & Service::Automotive Shop	37.818459	-122.261921	6
3	2226	1	"Oakland"	"Taste of Denmark"	Food::Bakery	37.8227024145735	-122.266338602374	6
3	2226	1	"Oakland"	"Kaiser Piedmont Building"	Professional & Other Places::Medical Center::Hospital	37.8239870027433	-122.25610278296	6
3	2226	1	"Oakland"	"Manifesto Bicycles"	Shop & Service::Bike Shop	37.82852	-122.260696	6
3	2226	1	"Oakland"	"Taqueria Barajitas"	Food::Food Truck	37.8182258856557	-122.262425422668	6
3	2226	1	"Oakland"	"Kaiser Permanente Pharmacy"	Shop & Service::Drugstore / Pharmacy	37.8251535199271	-122.258130084988	6
3	2226	1	"Oakland"	"Homeroom"	Food::Mac & Cheese Joint	37.828473509239	-122.259941330426	6
3	2226	1	"Oakland"	"Church's Chicken"	Food::Fried Chicken Joint	37.8306115724105	-122.264324426651	6
3	2226	1	"Oakland"	"Johnny's Auto Repair"	Shop & Service::Automotive Shop	37.820766	-122.260104	6
3	2226	1	"Oakland"	"Rowan Morrison Contemporary Art & Artist's Books"	Arts & Entertainment::Art Gallery	37.828127	-122.257214	6
3	2948	0	"Pittsburgh"	"Hillman Cancer Center"	Professional & Other Places::Medical Center	40.4515838623047	-79.9404296875	8
3	2948	0	"Pittsburgh"	"Toast!"	Food::Seafood Restaurant	40.4553985595703	-79.9435501098633	8
3	2948	0	"Pittsburgh"	"PNC Bank"	Shop & Service::Bank	40.4542032296351	-79.9477391981532	8
3	2948	0	"Pittsburgh"	"Winchester Thurston School"	Professional & Other Places::School	40.4515563129132	-79.9428051229707	8
3	2948	0	"Pittsburgh"	"Amberson Apartments and Towers: Building 2"	Residence::Residential Building (Apartment / Condo)	40.4535855376082	-79.9424827318457	8
3	2948	0	"Pittsburgh"	"Jiffy Lube"	Shop & Service::Automotive Shop	40.4557585668439	-79.9428488369301	8
3	2948	0	"Pittsburgh"	"Devon Apartments"	Professional & Other Places::Building	40.453604	-79.945605	8
3	2948	0	"Pittsburgh"	"Cricket lounge"	Nightlife Spot::Strip Club	40.4546209696508	-79.9453186401382	8
3	2948	0	"Pittsburgh"	"Rocque Records"	Arts & Entertainment::Music Venue	40.4535903224723	-79.9424444819723	8
3	2948	0	"Pittsburgh"	"Surgical ICU Family Lounge"	Professional & Other Places::Medical Center	40.4518023	-79.9407489	8
3	2948	0	"Pittsburgh"	"CCP Pittsburgh Pediatrics"	Professional & Other Places::Medical Center::Doctor's Office	40.4544715881348	-79.945198059082	8
3	2948	0	"Pittsburgh"	"Penn Station East Coast Subs"	Food::Sandwich Place	40.4535867333333	-79.94726	8
3	2948	0	"Pittsburgh"	"UPMC Shadyside Family Health Center"	Professional & Other Places::Medical Center::Doctor's Office	40.4553025960922	-79.941055	8
3	2948	0	"Pittsburgh"	"UPMC Hillman Cancer Center"	Professional & Other Places::Medical Center	40.4548530578613	-79.9424362182617	8
3	2948	0	"Pittsburgh"	"Einstein Bros Bagels"	Food::Bagel Shop	40.4545542786718	-79.9461163935248	8
3	2948	0	"Pittsburgh"	"UPMC Cancer Pavilion"	Professional & Other Places::Building	40.4548492431641	-79.9413299560547	8
3	2948	0	"Pittsburgh"	"Kaldorf Studio"	Arts & Entertainment::Art Gallery	40.454761505127	-79.9452667236328	8
3	2948	0	"Pittsburgh"	"UPMC Shadyside ER"	Professional & Other Places::Medical Center::Hospital	40.4543028523432	-79.9391112144805	8
3	2948	0	"Pittsburgh"	"KFC"	Food::Fried Chicken Joint	40.4549092950676	-79.9461983540768	8
3	2948	0	"Pittsburgh"	"Hillman Cancer Centre"	Professional & Other Places::Medical Center::Doctor's Office	40.4550132751465	-79.9427871704102	8
3	602	6	"Mountain View"	"Cuesta Park"	Outdoors & Recreation::Playground	37.3724593137756	-122.081065177917	2
3	602	6	"Mountain View"	"Sushi 85"	Food::Sushi Restaurant	37.3771997731769	-122.076880931854	2
3	602	6	"Mountain View"	"Saint Francis High School"	Professional & Other Places::School::High School	37.369935493763	-122.08554983139	2
3	602	6	"Mountain View"	"Shell Gas Station"	Shop & Service::Gas Station / Garage	37.3731372120299	-122.087403350149	2
3	602	6	"Mountain View"	"Dentist"	Professional & Other Places::Medical Center::Dentist's Office	37.382664	-122.075361	2
3	602	6	"Mountain View"	"Altos Oaks Medical Group"	Professional & Other Places::Medical Center::Doctor's Office	37.3695896086476	-122.081455915133	2
3	602	6	"Mountain View"	"Highway Community"	Professional & Other Places::Spiritual Center::Church	37.3662256	-122.08816006	2
3	602	6	"Mountain View"	"Dr. Leonard Fu	Professional & Other Places::Medical Center::Dentist's Office	37.3670223031226	-122.083702885552	2
3	602	6	"Mountain View"	"RadioShack"	Shop & Service::Electronics Store	37.3772499874407	-122.076179512699	2
3	602	6	"Mountain View"	"Huff Elementary"	Professional & Other Places::School::Elementary School	37.3739700836183	-122.075707897463	2
3	602	6	"Mountain View"	"El Camino YMCA"	Shop & Service::Gym / Fitness Center::Gym	37.3706346686207	-122.079434394836	2
3	602	6	"Mountain View"	"The Chicken Coup"	Outdoors & Recreation::Farm	37.37621	-122.07558	2
3	602	6	"Mountain View"	"El Camino Hospital Women's Center"	Professional & Other Places::Medical Center::Doctor's Office	37.3696049763737	-122.081139671114	2
3	602	6	"Mountain View"	"Massage Envy"	Shop & Service::Spa / Massage	37.3789017204964	-122.075552541407	2
3	602	6	"Mountain View"	"Taqueria Margaritas"	Food::Mexican Restaurant	37.3816734552383	-122.07501411438	2
3	602	6	"Mountain View"	"Fro-Yo Shoppe"	Food::Dessert Shop	37.372877	-122.087645	2
3	602	6	"Mountain View"	"Maternity @  The Women's Hospital"	Professional & Other Places::Medical Center::Hospital	37.3698532926416	-122.08103980439	2
3	602	6	"Mountain View"	"Erik's DeliCafe"	Food::Sandwich Place	37.376671175639	-122.076419591904	2
3	602	6	"Mountain View"	"Cuesta Dog Training Area"	Outdoors & Recreation::Dog Run	37.3715423786962	-122.081489203923	2
3	602	6	"Mountain View"	"El Camino Hospital Labor & Delivery"	Professional & Other Places::Medical Center::Hospital	37.37140335	-122.09376702	2
3	602	6	"Mountain View"	"US Post Office - Blossom Valley"	Professional & Other Places::Post Office	37.3718312822088	-122.088146756583	2
3	602	6	"Mountain View"	"Moo Moo Fresh"	Food::Café	37.377192	-122.076541066667	2
3	602	6	"Mountain View"	"Saint Francis HS Lacrosse"	Outdoors & Recreation::Other Great Outdoors	37.3684876174465	-122.082349160801	2
3	602	6	"Mountain View"	"Mountain View Fire Station 2"	Professional & Other Places::Government Building::Fire Station	37.3735204527411	-122.077954986964	2
3	602	6	"Mountain View"	"Cuesta Tennis Center"	Outdoors & Recreation::Athletic & Sport::Tennis Court	37.3719121742902	-122.082437930155	2
3	602	6	"Mountain View"	"New York Pizza"	Food::Pizza Place	37.379557	-122.074953	2
3	602	6	"Mountain View"	"Country Pet Wash"	Shop & Service::Pet Store	37.371893	-122.088216	2
3	602	6	"Mountain View"	"El Camino Hospital"	Professional & Other Places::Medical Center::Hospital	37.3690316727056	-122.080249786377	2
3	602	6	"Mountain View"	"Carl C. Riccaboni	Professional & Other Places::Medical Center::Dentist's Office	37.368032	-122.082098	2
3	602	6	"Mountain View"	"Grant & Cuesta 51 Bus Stop"	Travel & Transport::Bus Station::Bus Line	37.3735512607703	-122.077882858888	2
3	602	6	"Mountain View"	"Safeway"	Shop & Service::Food & Drink Shop::Grocery Store	37.3723655246861	-122.088242769241	2
3	602	6	"Mountain View"	"Starbucks"	Food::Coffee Shop	37.3730763735633	-122.087791697429	2
3	602	6	"Mountain View"	"House of Bagels"	Food::Bagel Shop	37.3727726537471	-122.08748370409	2
3	602	6	"Mountain View"	"Valley Radiology"	Professional & Other Places::Medical Center	37.3670371349476	-122.080590402995	2
3	602	6	"Mountain View"	"Stanford Blood Center"	Professional & Other Places::Medical Center::Hospital	37.3668658685071	-122.083661556244	2
3	602	6	"Mountain View"	"Melchor Pavilion"	Professional & Other Places::Medical Center::Doctor's Office	37.3700143009069	-122.082121689	2
3	602	6	"Mountain View"	"Blossom Valley Cleaners"	Shop & Service::Laundry Service	37.371852	-122.087791	2
3	602	6	"Mountain View"	"Dr Michael J Fong	Professional & Other Places::Medical Center::Dentist's Office	37.3679322504038	-122.082071756102	2
3	602	6	"Mountain View"	"Dr. Nipa Sheth	Professional & Other Places::Medical Center::Dentist's Office	37.381584	-122.074981	2
3	602	6	"Mountain View"	"99 Ranch Market 大華超級市場"	Shop & Service::Food & Drink Shop::Grocery Store	37.3776132702668	-122.076666355133	2
3	1837	0	"Pittsburgh"	"UPMC St. Margaret ER"	Professional & Other Places::Medical Center::Emergency Room	40.4893913269043	-79.8954925537109	7
3	1837	0	"Pittsburgh"	"Taco Bell"	Food::Mexican Restaurant	40.4875450829712	-79.8949880897999	7
3	1837	0	"Pittsburgh"	"Barnes & Noble"	Shop & Service::Bookstore	40.4885905473341	-79.8932862281799	7
3	1837	0	"Pittsburgh"	"Starbucks"	Food::Coffee Shop	40.4877510070801	-79.8933029174805	7
3	1837	0	"Pittsburgh"	"VAPHS - H.J. Heinz - Aspinwall - Building 71"	Professional & Other Places::Medical Center::Hospital	40.4950940796972	-79.8889384195366	7
3	1837	0	"Pittsburgh"	"Starbucks - Waterworks"	Food::Coffee Shop	40.4882270378142	-79.8934709463581	7
3	1837	0	"Pittsburgh"	"UPMC St. Margaret Hospital"	Professional & Other Places::Medical Center::Hospital	40.4897736873586	-79.8957699537277	7
3	1837	0	"Pittsburgh"	"Greater Pittsburgh Neurology Consultants"	Professional & Other Places::Medical Center::Doctor's Office	40.4902381896973	-79.8955230712891	7
3	1837	0	"Pittsburgh"	"UPMC St. Margaret Hospital"	Professional & Other Places::Medical Center::Hospital	40.4897736873586	-79.8957699537277	7
3	1837	0	"Pittsburgh"	"Giant Eagle"	Shop & Service::Food & Drink Shop::Grocery Store	40.4880356882759	-79.8938280344009	7
3	1837	0	"Pittsburgh"	"Uncle Sam's Subs"	Food::Sandwich Place	40.4891617209846	-79.8928731679916	7
3	1837	0	"Pittsburgh"	"Waterworks Cinema"	Arts & Entertainment::Movie Theater	40.4899389173228	-79.8936724662781	7
3	1837	0	"Pittsburgh"	"Marshalls"	Shop & Service::Clothing Store	40.4887317513032	-79.8920658333642	7
3	1837	0	"Pittsburgh"	"Waterworks Post"	Travel & Transport::Hotel::Resort	40.4894409179688	-79.8921356201172	7
3	1837	0	"Pittsburgh"	"VA Medical Center"	Professional & Other Places::Medical Center::Hospital	40.4794612871588	-79.8948869713561	7
3	1837	0	"Pittsburgh"	"Ritz Camera & Image"	Shop & Service::Miscellaneous Shop	40.4884110346114	-79.8934364318848	7
3	1967	0	"Pittsburgh"	"Wesley Center A.M.E Zion Church"	Professional & Other Places::Spiritual Center::Church	40.4476049503394	-79.9673470705924	7
3	1967	0	"Pittsburgh"	"Sugar Top"	Outdoors & Recreation::Other Great Outdoors	40.4523552676733	-79.9596388446353	7
3	1967	0	"Pittsburgh"	"Scaife Vending Machines"	Food::Restaurant	40.4429321289062	-79.9609146118164	7
3	1967	0	"Pittsburgh"	"UPMC Presby Emergancy Department"	Professional & Other Places::Medical Center::Hospital	40.4427185058594	-79.9594497680664	7
3	1967	0	"Pittsburgh"	"Jimmy John's"	Food::Sandwich Place	40.439476	-79.959928	7
3	1967	0	"Pittsburgh"	"Curran Hall @ Carlow University"	College & University::College Academic Building::College Technology Building	40.4393155874031	-79.9620426167748	7
3	1967	0	"Pittsburgh"	"Starbucks"	Food::Coffee Shop	40.4409038750803	-79.9576203525066	7
3	1967	0	"Pittsburgh"	"Panera Bread"	Food::Sandwich Place	40.4419	-79.9565	7
3	1967	0	"Pittsburgh"	"UPMC Aesthetic Plastic Surgery Center"	Professional & Other Places::Medical Center::Doctor's Office	40.4356336375386	-79.9580490407916	7
3	1967	0	"Pittsburgh"	"Magee-Womens Hospital of UPMC"	Professional & Other Places::Medical Center::Hospital	40.4369445342904	-79.9607276916504	7
3	1967	0	"Pittsburgh"	"PNC Bank"	Shop & Service::Bank	40.4418029785156	-79.9607543945312	7
3	1967	0	"Pittsburgh"	"Caribou Coffee"	Food::Coffee Shop	40.44109501	-79.9576898666667	7
3	1967	0	"Pittsburgh"	"VA Pittsburgh Healthcare System"	Professional & Other Places::Medical Center::Hospital	40.4465490427259	-79.9614744584245	7
3	1967	0	"Pittsburgh"	"Carlow University"	College & University::University	40.4392717852772	-79.9634742736816	7
3	1967	0	"Pittsburgh"	"The Natural Choice"	Shop & Service::Salon / Barbershop	40.441005	-79.958881	7
3	1967	0	"Pittsburgh"	"Isaly's Building"	Professional & Other Places::Medical Center::Doctor's Office	40.4355008705305	-79.9582238659985	7
3	1967	0	"Pittsburgh"	"Immaculate Heart of Mary Church"	Professional & Other Places::Spiritual Center::Church	40.4563953923353	-79.9678332505356	7
3	1967	0	"Pittsburgh"	"Primanti Bros."	Nightlife Spot::Sports Bar	40.4416958	-79.956779	7
3	1967	0	"Pittsburgh"	"Sciulli's"	Food::Pizza Place	40.4393157958984	-79.9618606567383	7
3	1967	0	"Pittsburgh"	"Computer Science Department"	College & University::University	40.4413775717459	-79.9560822330965	7
3	1967	0	"Pittsburgh"	"University Prep"	Professional & Other Places::School::High School	40.4492561258493	-79.9636541996646	7
3	1967	0	"Pittsburgh"	"Homeski"	Residence::Residential Building (Apartment / Condo)	40.4556927251715	-79.9685761719565	7
3	1967	0	"Pittsburgh"	"Old Children's"	Professional & Other Places::Medical Center::Hospital	40.4422340393066	-79.9592590332031	7
3	1967	0	"Pittsburgh"	"Chipotle Mexican Grill"	Food::Burrito Place	40.4410323396913	-79.9577594857727	7
3	1967	0	"Pittsburgh"	"Garden View Café"	Food::Café	40.4368873727262	-79.9607491493225	7
3	1967	0	"Pittsburgh"	"The Salvation Army"	Shop & Service::Thrift / Vintage Store	40.4467	-79.964827	7
3	1967	0	"Pittsburgh"	"Fitzgerald Field House"	College & University::College Rec Center	40.4434795293136	-79.964293361586	7
3	1967	0	"Pittsburgh"	"Trees Hall"	College & University::College Gym	40.4439025616805	-79.9653586210518	7
3	1967	0	"Pittsburgh"	"Entertainment Technology Center - ETC"	College & University::College Academic Building	40.432807250304	-79.9645665062785	7
3	1967	0	"Pittsburgh"	"UPMC Presbyterian 4D"	Professional & Other Places::Medical Center::Hospital	40.4425582885742	-79.9603118896484	7
3	1967	0	"Pittsburgh"	"UPMC Presby Outpatient Cardiology"	Professional & Other Places::Medical Center::Hospital	40.4434432983398	-79.9609909057617	7
3	1967	0	"Pittsburgh"	"US Post Office"	Professional & Other Places::Post Office	40.4400609657112	-79.9527549492423	7
3	1967	0	"Pittsburgh"	"Posvar Hall"	College & University::College Academic Building	40.4416624094872	-79.9546945143503	7
3	1967	0	"Pittsburgh"	"Brewing Up A Cure 2011"	Food::Brewery	40.4421920776367	-79.9614334106445	7
3	1967	0	"Pittsburgh"	"Pitt School of Pharmacy"	College & University::Medical School	40.4422316408893	-79.9628948473662	7
3	1967	0	"Pittsburgh"	"Panera Bread"	Food::Sandwich Place	40.4361390884066	-79.9581528433004	7
3	1967	0	"Pittsburgh"	"Veterans Affairs Pittsburgh Healthcare System"	Professional & Other Places::Medical Center::Hospital	40.4454193115234	-79.9609527587891	7
3	1967	0	"Pittsburgh"	"Hampton Inn Pittsburgh-University Center"	Travel & Transport::Hotel	40.4360054452915	-79.9631309509277	7
3	1967	0	"Pittsburgh"	"Victoria Building"	College & University::College Academic Building	40.4416656494141	-79.9611206054688	7
3	1967	0	"Pittsburgh"	"National Kidney Foundation"	Professional & Other Places::Office::Conference Room	40.4364868698244	-79.9635886443311	7
3	1967	0	"Pittsburgh"	"Wyndham Hotel"	Travel & Transport::Hotel	40.43970261	-79.95927	7
3	1967	0	"Pittsburgh"	"Dr. Gottlieb's Office"	Professional & Other Places::Medical Center::Dentist's Office	40.43845451334	-79.9612777873647	7
3	1967	0	"Pittsburgh"	"UPMC Ear Nose & Throat"	Professional & Other Places::Medical Center::Doctor's Office	40.4417666227155	-79.9610975051706	7
3	1967	0	"Pittsburgh"	"AJP @ Carlow University"	College & University::College Academic Building::College Science Building	40.4376678466797	-79.9634475708008	7
3	1967	0	"Pittsburgh"	"Antonian Hall"	College & University::College Academic Building::College Communications Building	40.438773678684	-79.9630129337311	7
3	1967	0	"Pittsburgh"	"Rite Aid"	Shop & Service::Drugstore / Pharmacy	40.4408586052608	-79.9572186162789	7
3	1967	0	"Pittsburgh"	"Myths	College & University::College Classroom	40.438798	-79.96401	7
3	1967	0	"Pittsburgh"	"Eye & Ear Institute Administrative Offices"	Professional & Other Places::Office	40.441596	-79.961192	7
3	1967	0	"Pittsburgh"	"Sushi Boat"	Food::Sushi Restaurant	40.4416356998549	-79.9570047855377	7
3	1967	0	"Pittsburgh"	"APlus at Sunoco"	Shop & Service::Gas Station / Garage	40.4357209246652	-79.9608407389787	7
3	1967	0	"Pittsburgh"	"UPMC- Biomedical Science Tower 1"	College & University::College Lab	40.4415587232813	-79.9613433444338	7
3	1967	0	"Pittsburgh"	"Gooski's"	Nightlife Spot::Dive Bar	40.4568350757346	-79.9665167345368	7
3	1967	0	"Pittsburgh"	"The Book Center"	College & University::College Bookstore	40.440937557567	-79.9580025672913	7
3	1967	0	"Pittsburgh"	"UPMC Cafeteria"	Professional & Other Places::Medical Center::Hospital	40.4434585571289	-79.9610137939453	7
3	1967	0	"Pittsburgh"	"Golden Palace Buffet"	Food::Chinese Restaurant	40.440861	-79.957904	7
3	1967	0	"Pittsburgh"	"DCI of Oakland"	Professional & Other Places::Medical Center	40.4373691615313	-79.964075088501	7
3	1967	0	"Pittsburgh"	"UPMC Falk Building"	Professional & Other Places::Medical Center::Doctor's Office	40.4415366668711	-79.9593110523973	7
3	1967	0	"Pittsburgh"	"2nd Ave shuttle"	Travel & Transport::Bus Station::Bus Line	40.4407253653941	-79.957502709764	7
3	1967	0	"Pittsburgh"	"Western Psychiatric Institute and Clinic"	Professional & Other Places::Medical Center::Hospital	40.4432425167992	-79.9590815970984	7
3	1967	0	"Pittsburgh"	"American Apparel"	Shop & Service::Clothing Store	40.442106127739	-79.9563986063004	7
3	1967	0	"Pittsburgh"	"Sigma Chi Fraternity - University of Pittsburgh"	College & University::Fraternity House	40.4453385906543	-79.9603950977325	7
3	1967	0	"Pittsburgh"	"UPMC Digestive Disorder Center"	Professional & Other Places::Medical Center::Hospital	40.4396171569824	-79.9608917236328	7
3	1967	0	"Pittsburgh"	"North Way Christian Community - Oakland"	Professional & Other Places::Spiritual Center::Church	40.4396768678671	-79.9596934765554	7
3	1967	0	"Pittsburgh"	"LHAS Café on 7th"	Food::Café	40.4411025927659	-79.9614744584245	7
3	1967	0	"Pittsburgh"	"UPMC Falk Building"	Professional & Other Places::Medical Center::Doctor's Office	40.4415366668711	-79.9593110523973	7
3	1967	0	"Pittsburgh"	"UPMC Montefiore"	Professional & Other Places::Medical Center::Hospital	40.4409712579164	-79.9618295578268	7
3	1967	0	"Pittsburgh"	"UPMC Dental Center"	Professional & Other Places::Medical Center::Dentist's Office	40.4408721923828	-79.9612426757812	7
3	1967	0	"Pittsburgh"	"Prince of India Restaurant and Tavern"	Food::Indian Restaurant	40.441596	-79.958396	7
3	1967	0	"Pittsburgh"	"Kaufmann Medical Bldg."	Professional & Other Places::Medical Center	40.4405711241325	-79.9605511932181	7
3	1967	0	"Pittsburgh"	"Enrico's Hair Cut for Men"	Shop & Service::Salon / Barbershop	40.4411244	-79.95958507061	7
3	1967	0	"Pittsburgh"	"Busstop At Fifth And Craft"	Travel & Transport::Bus Station	40.437915802002	-79.9636840820312	7
3	1967	0	"Pittsburgh"	"UPMC Thomas E. Starzl Transplantation Institute"	Professional & Other Places::Medical Center::Hospital	40.4408836364746	-79.9629364013672	7
3	1967	0	"Pittsburgh"	"The Perch"	Food::Restaurant	40.4454002380371	-79.9625549316406	7
3	1967	0	"Pittsburgh"	"UPMC Presbyterian Hospital"	Professional & Other Places::Medical Center::Hospital	40.4418399245149	-79.9606440664912	7
3	1967	0	"Pittsburgh"	"Lothrop Hall"	College & University::College Residence Hall	40.4412976999432	-79.960097751701	7
3	1967	0	"Pittsburgh"	"CVS"	Shop & Service::Drugstore / Pharmacy	40.4395437247398	-79.9598191298417	7
3	1967	0	"Pittsburgh"	"Sutherland Hall"	College & University::College Residence Hall	40.4458693080134	-79.9626159667969	7
3	1967	0	"Pittsburgh"	"UPMC Montefiore"	Professional & Other Places::Medical Center::Hospital	40.4409712579164	-79.9618295578268	7
3	1967	0	"Pittsburgh"	"Starbucks"	Food::Coffee Shop	40.4422699093521	-79.9606495296218	7
3	1967	0	"Pittsburgh"	"Pennsylvania Hall"	College & University::College Residence Hall	40.4449058487831	-79.9605023860931	7
3	1967	0	"Pittsburgh"	"The Exchange Oakland"	Shop & Service::Miscellaneous Shop	40.4409484863281	-79.9578247070312	7
3	1967	0	"Pittsburgh"	"UPMC Kaufman Building"	Professional & Other Places::Medical Center::Doctor's Office	40.440415	-79.960564	7
3	1967	0	"Pittsburgh"	"Magee Women's Hospital"	Professional & Other Places::Medical Center::Hospital	40.4354934692383	-79.9624938964844	7
3	1967	0	"Pittsburgh"	"Magee Womens Hospital Cancer Center"	Professional & Other Places::Medical Center	40.4373435974121	-79.9608688354492	7
3	1967	0	"Pittsburgh"	"Pizza Sola"	Food::Pizza Place	40.4412976	-79.957855	7
3	1967	0	"Pittsburgh"	"Leopold Headquarters"	Professional & Other Places::Spiritual Center::Temple	40.4376376148877	-79.9511923387094	7
3	1967	0	"Pittsburgh"	"Eureka Building"	College & University::College Administrative Building	40.4388542175293	-79.9606857299805	7
3	1967	0	"Pittsburgh"	"Parking Lot A @ Carlow University"	Professional & Other Places::Parking	40.4379920959473	-79.9608688354492	7
3	1967	0	"Pittsburgh"	"Quality Inn University Center"	Travel & Transport::Hotel	40.4363008996318	-79.9581856230144	7
3	1967	0	"Pittsburgh"	"The Hideout"	Nightlife Spot::Nightclub	40.4321565848551	-79.9586882437547	7
3	1967	0	"Pittsburgh"	"Pittsburgh Playhouse"	College & University::College Theater	40.4362504262948	-79.962465763092	7
3	1967	0	"Pittsburgh"	"FedEx Office Print & Ship Center"	Shop & Service::Financial or Legal Service	40.441044	-79.957558	7
3	1967	0	"Pittsburgh"	"Got Used Bookstore"	Shop & Service::Bookstore	40.440784	-79.958156	7
3	1967	0	"Pittsburgh"	"Pittsburgh Popcorn Company"	Food::Snack Place	40.4529037475586	-79.9633712768555	7
3	1967	0	"Pittsburgh"	"UPMC Magee- ER"	Professional & Other Places::Medical Center::Emergency Room	40.4368934631348	-79.9593505859375	7
3	1967	0	"Pittsburgh"	"Sennott Square"	College & University::College Academic Building::College Technology Building	40.4418072793496	-79.9564045740592	7
3	1967	0	"Pittsburgh"	"56 Bus"	Travel & Transport::Bus Station::Bus Line	40.4330180655761	-79.9627528095122	7
3	1967	0	"Pittsburgh"	"University of Pittsburgh School of Medicine"	College & University::College Academic Building	40.4428833612648	-79.9613925122034	7
3	1967	0	"Pittsburgh"	"Petersen Events Center"	College & University::College Stadium::College Basketball Court	40.4437790738584	-79.9623155593872	7
3	1967	0	"Pittsburgh"	"UPMC Eye Center"	Professional & Other Places::Medical Center	40.4419683869059	-79.9611521361778	7
3	1967	0	"Pittsburgh"	"UPMC Montefiore"	Professional & Other Places::Medical Center::Hospital	40.4409712579164	-79.9618295578268	7
3	1967	0	"Pittsburgh"	"54C Bus Line"	Travel & Transport::Bus Station::Bus Line	40.4442837246353	-79.9602780359597	7
3	1967	0	"Pittsburgh"	"ZBT House"	College & University::Fraternity House	40.445306	-79.96034585	7
3	1967	0	"Pittsburgh"	"Dennis Hurwitz	Professional & Other Places::Medical Center::Doctor's Office	40.436222076416	-79.9650650024414	7
3	1967	0	"Pittsburgh"	"Pitt School of Nursing"	College & University::College Academic Building	40.4413382398853	-79.9607697184093	7
3	1967	0	"Pittsburgh"	"Rock Room"	Nightlife Spot::Dive Bar	40.457904	-79.963725	7
3	1967	0	"Pittsburgh"	"Veracruz Mexican Restaurant"	Food::Mexican Restaurant	40.4412961587258	-79.9571530561126	7
3	1967	0	"Pittsburgh"	"UPMC Presbyterian Hospital"	Professional & Other Places::Medical Center::Hospital	40.4422454100664	-79.9606276770972	7
3	1967	0	"Pittsburgh"	"Katz Graduate School of Business"	College & University::College Academic Building	40.4405129528638	-79.9529707431793	7
3	850	6	"Mountain View"	"iBethel Bible Study"	Professional & Other Places::Spiritual Center::Church	37.3813431667545	-122.062182426453	0
3	850	6	"Mountain View"	"PAMF Mountain View Center Orthopedics"	Professional & Other Places::Medical Center::Doctor's Office	37.3763130913193	-122.064242362976	0
3	850	6	"Mountain View"	"Satsuma Sushi"	Food::Sushi Restaurant	37.3758614010019	-122.063683791081	0
3	850	6	"Mountain View"	"Lucky"	Shop & Service::Food & Drink Shop::Grocery Store	37.375611	-122.063137	0
3	850	6	"Mountain View"	"Sylvan Apartments"	Residence::Residential Building (Apartment / Condo)	37.3798626641492	-122.063284259385	0
3	850	6	"Mountain View"	"Chalateco"	Food::Mexican Restaurant	37.3755633831024	-122.061546	0
3	850	6	"Mountain View"	"Palo Alto Medical Foundation Laboratory"	Professional & Other Places::Medical Center::Doctor's Office	37.37637	-122.064957	0
3	850	6	"Mountain View"	"Urgent Care	Professional & Other Places::Medical Center::Doctor's Office	37.3760449781252	-122.064238693777	0
3	850	6	"Mountain View"	"Sylvan Park"	Outdoors & Recreation::Playground	37.381657	-122.063364	0
3	850	6	"Mountain View"	"Hotel Avante"	Travel & Transport::Hotel	37.3762848424831	-122.060898136721	0
3	850	6	"Mountain View"	"Action Day Primary Plus"	Professional & Other Places::School::Nursery School	37.3695451347823	-122.07317778544	0
3	850	6	"Mountain View"	"India Fresh"	Shop & Service::Food & Drink Shop::Grocery Store	37.375089	-122.060402	0
3	850	6	"Mountain View"	"Aaron's Green"	Shop & Service::Gym / Fitness Center::Martial Arts Dojo	37.3714471506358	-122.064943416114	0
3	850	6	"Mountain View"	"Palo Alto Medical Foundation"	Professional & Other Places::Medical Center::Doctor's Office	37.3763581310102	-122.06504329765	0
3	850	6	"Mountain View"	"Palo Alto Medical Foundation-X-Ray"	Professional & Other Places::Medical Center	37.376448123969	-122.06610314607	0
3	850	6	"Mountain View"	"Mountain View High School Track"	Arts & Entertainment::Stadium::Track Stadium	37.3574686239072	-122.068362236023	0
3	850	6	"Mountain View"	"The Office Bar"	Nightlife Spot::Dive Bar	37.3771777515031	-122.062485191585	0
3	850	6	"Mountain View"	"Palo Alto Medical Foundation Internal Medicine"	Professional & Other Places::Medical Center::Doctor's Office	37.3763640293209	-122.064316379928	0
3	850	6	"Mountain View"	"Poolside at Americana"	Outdoors & Recreation::Pool	37.3747187427641	-122.064950466156	0
3	850	6	"Mountain View"	"Stevens Creek Trail	Outdoors & Recreation::Hiking Trail	37.3705118260973	-122.064804691606	0
3	5312	4	"San Francisco"	"SF Pet Hospital"	Professional & Other Places::Medical Center::Hospital	37.7767686321635	-122.439322792738	2
3	5312	4	"San Francisco"	"Workshop."	College & University::College Classroom	37.777417	-122.441557	2
3	5312	4	"San Francisco"	"Kaiser Permanente O'Farrell Medical Office Building"	Professional & Other Places::Medical Center	37.7779774751363	-122.43963244639	2
3	2351	0	"Pittsburgh"	"Gene's Place"	Nightlife Spot::Dive Bar	40.439381	-79.956184	1
3	7091	4	"San Francisco"	"Brisas De Acapulco"	Food::Mexican Restaurant	37.747086	-122.418923	1
3	7091	4	"San Francisco"	"Nap's 3"	Nightlife Spot::Dive Bar	37.7468703	-122.4192632	1
3	7091	4	"San Francisco"	"Wall-E Bounce House"	Arts & Entertainment::Theme Park	37.748263	-122.421963	1
3	7091	4	"San Francisco"	"O'Reilly Auto Parts"	Shop & Service::Automotive Shop	37.747022951314	-122.419359261795	1
3	7091	4	"San Francisco"	"Cut Creations Barbershop"	Shop & Service::Cosmetics Shop	37.74626	-122.41935836	1
3	7091	4	"San Francisco"	"Anthony's Cookies"	Food::Bakery	37.750302	-122.42056126	1
3	7091	4	"San Francisco"	"High Bridge Arms"	Shop & Service::Hobby Shop	37.7460995558124	-122.419530709945	1
3	7091	4	"San Francisco"	"CPMC-St Luke's Hospital"	Professional & Other Places::Medical Center::Hospital	37.747688382253	-122.421079261202	1
3	7091	4	"San Francisco"	"Tabernacle Of Faith MBC"	Professional & Other Places::Spiritual Center::Church	37.7499675750732	-122.420809864998	1
3	7091	4	"San Francisco"	"Quail Cove"	Outdoors & Recreation::Campground	37.748817	-122.420427	1
3	7091	4	"San Francisco"	"BetaBrand"	Shop & Service::Clothing Store	37.747833	-122.41941	1
3	7091	4	"San Francisco"	"Bay West Family Health Care"	Professional & Other Places::Medical Center	37.7468119723147	-122.420461177826	1
3	7091	4	"San Francisco"	"The Salvation Army"	Shop & Service::Thrift / Vintage Store	37.7486992783438	-122.420122480443	1
3	7091	4	"San Francisco"	"CPMC St. Luke's Monteagle Medical Center"	Professional & Other Places::Medical Center::Doctor's Office	37.7467422423214	-122.420714247606	1
3	7091	4	"San Francisco"	"Relax Feet Massage"	Shop & Service::Spa / Massage	37.7491279436618	-122.420214414597	1
3	7091	4	"San Francisco"	"Baby Blues BBQ"	Food::BBQ Joint	37.7468643538846	-122.419016364654	1
3	7091	4	"San Francisco"	"Wild Pepper"	Food::Chinese Restaurant	37.748795	-122.42141	1
3	7091	4	"San Francisco"	"South End Bar 'N' Grill"	Nightlife Spot::Bar	37.7489524398032	-122.420260744097	1
3	7091	4	"San Francisco"	"The Army Lofts"	Professional & Other Places::Building	37.7477842569351	-122.419593	1
3	7091	4	"San Francisco"	"El Rio"	Nightlife Spot::Dive Bar	37.746868	-122.41951655	1
3	7091	4	"San Francisco"	"Red Hots Burlesque"	::Arts & Entertainment	37.7468806310231	-122.419475404121	1
3	7091	4	"San Francisco"	"Matt's Infinite Birthday Party"	Nightlife Spot::Nightclub	37.7467812333333	-122.418830394745	1
3	7091	4	"San Francisco"	"26th & Guerrero Market"	Food::Deli / Bodega	37.7487349070111	-122.422583546266	1
3	7091	4	"San Francisco"	"El Rio - Mango Party"	Nightlife Spot::Dive Bar	37.7468798833333	-122.41953645	1
3	7091	4	"San Francisco"	"St. Lukes Medical Center"	Professional & Other Places::Medical Center::Hospital	37.7474619387341	-122.420769552778	1
3	7091	4	"San Francisco"	"CPMC-St Luke's Hospital Campus"	Professional & Other Places::Medical Center::Hospital	37.7477076620455	-122.420808266381	1
3	12063	4	"San Francisco"	"Marin Day School"	College & University::General College & University	37.789307	-122.431627	3
3	12063	4	"San Francisco"	"California Pacific Medical Center"	Professional & Other Places::Medical Center::Hospital	37.7908776973151	-122.431127697613	3
3	12063	4	"San Francisco"	"Pacific Heights Medical Group"	Professional & Other Places::Medical Center::Doctor's Office	37.790993	-122.432346	3
3	12063	4	"San Francisco"	"The White House"	Professional & Other Places::Event Space	37.7918154001236	-122.430653572083	3
3	12063	4	"San Francisco"	"CPMC - Pacific Campus MSICU 3rd floor"	Professional & Other Places::Medical Center::Hospital	37.7909161553849	-122.431789	3
3	12063	4	"San Francisco"	"Sutter Pacific Medical Foundation - Electrophysiology"	Professional & Other Places::Medical Center::Doctor's Office	37.7905474238073	-122.431984839442	3
3	12063	4	"San Francisco"	"Pacific Professional Building"	Professional & Other Places::Medical Center::Doctor's Office	37.7906838890841	-122.432443822186	3
3	12063	4	"San Francisco"	"California Pacific Medical Center"	Professional & Other Places::Medical Center::Hospital	37.7908776973151	-122.431127697613	3
3	12063	4	"San Francisco"	"Pacific Heights Market"	Food::Deli / Bodega	37.7925241476768	-122.432627677917	3
3	12063	4	"San Francisco"	"California Pacific Medical Center- Pacific Campus"	Professional & Other Places::Medical Center::Hospital	37.7908878745633	-122.432189446456	3
3	12063	4	"San Francisco"	"CPMC Institute for Health and Healing"	Professional & Other Places::Medical Center::Doctor's Office	37.7901030105982	-122.432233685757	3
3	12063	4	"San Francisco"	"CPMC 5th Floor Resident Room"	Outdoors & Recreation::Playground	37.790707	-122.431194	3
3	12063	4	"San Francisco"	"Pacific Eye Associates"	Professional & Other Places::Medical Center::Doctor's Office	37.7902896393384	-122.431962719741	3
3	12063	4	"San Francisco"	"University of the Pacific	Professional & Other Places::Medical Center::Dentist's Office	37.7902297973633	-122.432815551758	3
3	12063	4	"San Francisco"	"CPMC Rheumatology"	Professional & Other Places::Medical Center::Doctor's Office	37.791345	-122.431897	3
3	12063	4	"San Francisco"	"CPMC"	Professional & Other Places::Medical Center::Hospital	37.790941	-122.431221	3
3	12063	4	"San Francisco"	"2295 Washington St."	Professional & Other Places::Office	37.791884	-122.430862	3
3	6331	4	"San Francisco"	"California Pacific Medical Center - Davies Campus"	Professional & Other Places::Medical Center::Hospital	37.7686114693106	-122.434859275818	1
3	6331	4	"San Francisco"	"The Savage Law Institute"	Nightlife Spot::Strip Club	37.7691203302446	-122.435621023178	1
3	6331	4	"San Francisco"	"Duboce Park Cafe"	Food::Coffee Shop	37.7692075111624	-122.431415255653	1
3	6331	4	"San Francisco"	"MUNI Metro Stop - Sunset Tunnel East Portal"	Travel & Transport::Light Rail	37.7691780458876	-122.433400490607	1
3	6331	4	"San Francisco"	"MUNI Metro Stop - Duboce & Noe"	Travel & Transport::Train Station::Train	37.7693225311646	-122.433582975499	1
3	6331	4	"San Francisco"	"CPMC Davies Campus Operating Rooms"	Professional & Other Places::Medical Center::Hospital	37.76890542	-122.43487028	1
3	6331	4	"San Francisco"	"Dermatology Center Of San Francisco"	Professional & Other Places::Medical Center::Doctor's Office	37.768522925	-122.435368	1
3	6331	4	"San Francisco"	"KAPLA MEDICAL CENTER"	Professional & Other Places::Medical Center::Doctor's Office	37.7684916528163	-122.435778299164	1
3	6331	4	"San Francisco"	"Davies Doctors Office Building"	Professional & Other Places::Medical Center::Doctor's Office	37.7685449666667	-122.435536	1
3	6331	4	"San Francisco"	"Buwisit Gardens"	Food::Restaurant	37.76903896	-122.43599936	1
3	6331	4	"San Francisco"	"MUNI Metro Stop - Sunset Tunnel East Portal"	Travel & Transport::Light Rail	37.7691780458876	-122.433400490607	1
3	6331	4	"San Francisco"	"Kapla Medical Group"	Professional & Other Places::Medical Center::Doctor's Office	37.7684486298874	-122.435640055957	1
3	6331	4	"San Francisco"	"Wellspring Medical Group"	Professional & Other Places::Medical Center::Doctor's Office	37.768642	-122.435218	1
3	6331	4	"San Francisco"	"California Pacific Medical Center - Davies Campus"	Professional & Other Places::Medical Center::Hospital	37.7686114693106	-122.434859275818	1
3	6331	4	"San Francisco"	"Duboce Park"	Outdoors & Recreation::Park	37.7695060230176	-122.43271478696	1
3	6331	4	"San Francisco"	"Duboce Park Playground"	Outdoors & Recreation::Playground	37.769442607025	-122.433700561523	1
3	6331	4	"San Francisco"	"Ironsides"	Food::American Restaurant	37.7678972900901	-122.43260971907	1
3	6331	4	"San Francisco"	"Harvey Milk Recreational Arts Center"	Professional & Other Places::Event Space	37.7695420780997	-122.434224435026	1
3	6331	4	"San Francisco"	"CPMC Davies Campus Gazebo"	Professional & Other Places::Medical Center	37.7682877712438	-122.434915658571	1
3	7361	4	"San Francisco"	"Muni 33 Bus Stop"	Travel & Transport::Bus Station::Bus Line	37.7744003983188	-122.454621906284	1
3	7361	4	"San Francisco"	"USF - Koret Center Basketball"	Outdoors & Recreation::Athletic & Sport::Basketball Court	37.7770983897272	-122.454367584395	1
3	7361	4	"San Francisco"	"St. Mary's Med Ctr Laboratory"	Professional & Other Places::Medical Center	37.7740102093255	-122.454168549441	1
3	7361	4	"San Francisco"	"St. Mary's Medical Center"	Professional & Other Places::Medical Center::Hospital	37.7740653770144	-122.453488510496	1
3	7361	4	"San Francisco"	"St Marys Medical Center South Wing"	Professional & Other Places::Medical Center::Hospital	37.773626	-122.453513216667	1
3	7361	4	"San Francisco"	"Cultural Integration Fellowship"	Professional & Other Places::Spiritual Center::Temple	37.7741648833333	-122.460403	1
3	7361	4	"San Francisco"	"Muni 33 Bus Stop"	Travel & Transport::Bus Station::Bus Line	37.774772644043	-122.454742431641	1
3	7361	4	"San Francisco"	"Arguello Market"	Food::Deli / Bodega	37.775678	-122.45836	1
3	7361	4	"San Francisco"	"USF - Fromm Hall"	College & University::College Residence Hall	37.7762100949564	-122.452583312988	1
3	7361	4	"San Francisco"	"Mercy Doctors Medical Group"	Professional & Other Places::Medical Center::Doctor's Office	37.774656	-122.452981	1
3	7361	4	"San Francisco"	"Velo Rouge Cafe"	Food::Coffee Shop	37.775319814682	-122.458313	1
3	7361	4	"San Francisco"	"Okina Sushi"	Food::Sushi Restaurant	37.775698	-122.458385	1
3	7361	4	"San Francisco"	"Horseshoe Pits"	Outdoors & Recreation::Other Great Outdoors	37.7736235968856	-122.455624938011	1
3	10406	4	"San Francisco"	"Starbucks"	Food::Coffee Shop	37.7639976875622	-122.456352384469	6
3	10406	4	"San Francisco"	"UCSF Beckman Vision Center"	Professional & Other Places::Medical Center	37.7626163540656	-122.46044349704	6
3	10406	4	"San Francisco"	"Terzetto Express"	Food::Coffee Shop	37.7637692442792	-122.456855489371	6
3	10406	4	"San Francisco"	"UCSF Dental Center"	Professional & Other Places::Medical Center::Dentist's Office	37.7618730527585	-122.461079263684	6
3	10406	4	"San Francisco"	"UCSF Benioff Children's Hospital"	Professional & Other Places::Medical Center::Hospital	37.7632527488843	-122.457629492189	6
3	10406	4	"San Francisco"	"UCSF Medical Sciences Building"	College & University::University	37.7626966289476	-122.457889334709	6
3	10406	4	"San Francisco"	"UCSF School of Medicine"	College & University::Medical School	37.7638431224533	-122.457612906475	6
3	10406	4	"San Francisco"	"UCSF School of Dentistry Faculty Group Practice"	Professional & Other Places::Medical Center::Dentist's Office	37.7622470891631	-122.460858127898	6
3	10406	4	"San Francisco"	"UCSF Emergency Room"	Professional & Other Places::Medical Center::Hospital	37.7635045862066	-122.457325420336	6
3	10406	4	"San Francisco"	"UCSF Neurology Center"	Professional & Other Places::Medical Center::Doctor's Office	37.763969	-122.45738	6
3	10406	4	"San Francisco"	"UCSF - Langley Porter"	Professional & Other Places::Medical Center	37.7633191080234	-122.457818984985	6
3	10406	4	"San Francisco"	"UCSF Ambulatory Care Center"	Professional & Other Places::Medical Center::Hospital	37.7638745420141	-122.457458106345	6
3	10406	4	"San Francisco"	"Moffitt Cafe - UCSF Medical Center"	Professional & Other Places::Office::Cafeteria	37.7633764424441	-122.457507863554	6
3	10406	4	"San Francisco"	"Magic Kingdommmmmm"	Nightlife Spot::Strip Club	37.757978	-122.462879	6
3	10406	4	"San Francisco"	"UCSF Medical Sciences Building"	College & University::University	37.7626966289476	-122.457889334709	6
3	10406	4	"San Francisco"	"UCSF Long Hospital"	Professional & Other Places::Medical Center::Hospital	37.7633535655108	-122.457496806399	6
3	10406	4	"San Francisco"	"UCSF Medical Center - 400 Parnassus"	Professional & Other Places::Medical Center::Hospital	37.7643017148451	-122.457673720749	6
3	10406	4	"San Francisco"	"Jamba Juice"	Food::Juice Bar	37.7634385110601	-122.458370318095	6
3	10406	4	"San Francisco"	"UCSF Children's Hospital"	Professional & Other Places::Medical Center::Hospital	37.7636934402751	-122.456529300754	6
3	10406	4	"San Francisco"	"Mt. Sutro Terrace Apartments"	Professional & Other Places::Building	37.7584029296209	-122.462317615444	6
3	10406	4	"San Francisco"	"Clancy's Pumpkin Patch"	Shop & Service::Miscellaneous Shop	37.7581162070093	-122.463455	6
3	10406	4	"San Francisco"	"MUNI Metro Stop - Carl & Hillway"	Travel & Transport::Train Station::Train	37.7649306042868	-122.456520795822	6
3	10406	4	"San Francisco"	"Haight Ashbury Recycling center"	Outdoors & Recreation::Other Great Outdoors	37.7661327865157	-122.457353063269	6
3	10406	4	"San Francisco"	"Millberry Union Garage"	Professional & Other Places::Parking	37.7639816272538	-122.458088362585	6
3	10406	4	"San Francisco"	"UCSF Medical Center"	Professional & Other Places::Medical Center::Hospital	37.7633021447181	-122.457776069641	6
3	10406	4	"San Francisco"	"UCSF - Clinical Sciences"	College & University::College Academic Building	37.7628102071718	-122.459621429443	6
3	10406	4	"San Francisco"	"UCSF - Dental Clinics Building"	Professional & Other Places::Medical Center::Dentist's Office	37.7638843996085	-122.456103595437	6
3	10406	4	"San Francisco"	"UCSF Medical Sciences Building"	College & University::University	37.7626966289476	-122.457889334709	6
3	10406	4	"San Francisco"	"UCSF - 350 Parnassus"	Professional & Other Places::Medical Center::Hospital	37.7641595089441	-122.45618652518	6
3	10406	4	"San Francisco"	"UCSF - Moffitt Hospital"	Professional & Other Places::Medical Center::Hospital	37.7631464819012	-122.460852599497	6
3	10406	4	"San Francisco"	"Farnsworth Steps"	Outdoors & Recreation::Plaza	37.7629119876222	-122.454643249512	6
3	10406	4	"San Francisco"	"Millberry Fitness & Recreation Center"	College & University::College Gym	37.763914662572	-122.458370318095	6
3	10406	4	"San Francisco"	"Palio Paninoteca"	Food::Coffee Shop	37.7637288651849	-122.458630158775	6
3	10406	4	"San Francisco"	"UCSF Blood Center - UCSF Millberry Union"	Professional & Other Places::Medical Center	37.7636760100898	-122.458541702446	6
3	10406	4	"San Francisco"	"UCSF"	College & University::University	37.7634604497181	-122.457889334709	6
37	4253	4	"San Francisco"	"Chase"	Shop & Service::Bank	37.7513856157149	-122.431824471503	3
37	4253	4	"San Francisco"	"Noe Valley Bakery"	Food::Bakery	37.7513013327683	-122.433533206924	3
37	4253	4	"San Francisco"	"Le Zinc French Bistro"	Food::Breakfast Spot	37.7512113479919	-122.433195885956	3
37	4253	4	"San Francisco"	"Starbucks"	Food::Coffee Shop	37.751406	-122.431819	3
37	4253	4	"San Francisco"	"PlumpJack Wines"	Shop & Service::Food & Drink Shop::Wine Shop	37.751413	-122.432325	3
37	4253	4	"San Francisco"	"SUPERCUTS"	Shop & Service::Salon / Barbershop	37.751395	-122.432630966667	3
37	4253	4	"San Francisco"	"James Lick Middle School"	Professional & Other Places::School::Middle School	37.7493616519137	-122.432460411887	3
37	4253	4	"San Francisco"	"Radio Shack"	Shop & Service::Electronics Store	37.751381	-122.433111	3
37	4253	4	"San Francisco"	"When Modern Was"	Shop & Service::Furniture / Home Store	37.751389	-122.432740782212	3
37	4253	4	"San Francisco"	"Valley Tavern"	Nightlife Spot::Bar	37.751466	-122.433093	3
37	4253	4	"San Francisco"	"Easy Breezy"	Food::Ice Cream Shop	37.751413031674	-122.432598659286	3
37	115	5	"San Leandro"	"Enterprise Holding Group Office"	Professional & Other Places::Office	37.7012452570689	-122.165239093185	5
37	115	5	"San Leandro"	"Burrell Fields"	Outdoors & Recreation::Field	37.7088951007158	-122.161419326207	5
37	115	5	"San Leandro"	"KFC / A&W"	Food::Fast Food Restaurant	37.7088010311127	-122.17185	5
37	115	5	"San Leandro"	"Flyers Gas - San Leandro"	Shop & Service::Gas Station / Garage	37.7090675483482	-122.170844078064	5
37	115	5	"San Leandro"	"Converse Outlet"	Shop & Service::Clothing Store::Shoe Store	37.7108885084018	-122.162600197534	5
37	115	5	"San Leandro"	"Sushi Avenue"	Food::Sushi Restaurant	37.7132695913315	-122.160453	5
37	115	5	"San Leandro"	"Wheel Works"	Shop & Service::Automotive Shop	37.7132481336594	-122.16084215	5
37	115	5	"San Leandro"	"Sears Outlet"	Shop & Service::Sporting Goods Shop	37.6997833356227	-122.166852335744	5
37	115	5	"San Leandro"	"Marina Square Shopping Center"	Shop & Service::Mall	37.7108245018297	-122.163254383582	5
37	115	5	"San Leandro"	"Nordstrom Rack"	Shop & Service::Department Store	37.7101597556698	-122.163847582747	5
37	115	5	"San Leandro"	"Guess"	Shop & Service::Clothing Store::Boutique	37.710508	-122.162766	5
37	115	5	"San Leandro"	"ACI Parking Lot"	Professional & Other Places::Parking	37.71032	-122.152024	5
37	115	5	"San Leandro"	"Denny's"	Food::American Restaurant	37.7088790875614	-122.169646348083	5
37	115	5	"San Leandro"	"Bank of America"	Shop & Service::Bank	37.70811227	-122.171314	5
37	115	5	"San Leandro"	"Wells Fargo San Leandro Industrial"	Shop & Service::Bank	37.70814	-122.170012	5
37	115	5	"San Leandro"	"ACCO Engineered Systems"	Professional & Other Places::Office	37.708451315439	-122.157871090273	5
37	115	5	"San Leandro"	"Talbots Outlet"	Shop & Service::Clothing Store::Women's Store	37.7106123244299	-122.163784503937	5
37	115	5	"San Leandro"	"Nike Clearance Store"	Shop & Service::Clothing Store::Shoe Store	37.7103237423331	-122.163140773773	5
37	115	5	"San Leandro"	"US Post Office"	Professional & Other Places::Post Office	37.71023	-122.170593	5
37	115	5	"San Leandro"	"Marshalls"	Shop & Service::Clothing Store	37.711004	-122.162341	5
37	115	5	"San Leandro"	"City of San Leandro"	Outdoors & Recreation::Other Great Outdoors	37.7185311641991	-122.15950107568	5
37	115	5	"San Leandro"	"Cooks Collision Repair"	Shop & Service::Automotive Shop	37.7060350257826	-122.158774792714	5
37	115	5	"San Leandro"	"Nine West"	Shop & Service::Clothing Store::Shoe Store	37.7107805013657	-122.162624	5
37	115	5	"San Leandro"	"Starbucks"	Food::Coffee Shop	37.7115108116894	-122.162572477698	5
37	115	5	"San Leandro"	"La Pinata #2"	Food::Mexican Restaurant	37.7039385759513	-122.168011665344	5
37	115	5	"San Leandro"	"Sprint Store"	Shop & Service::Miscellaneous Shop	37.7106195688248	-122.163049578667	5
37	115	5	"San Leandro"	"San Leandro Nissan Service Center"	Shop & Service::Automotive Shop	37.7129526176235	-122.163409613586	5
37	115	5	"San Leandro"	"Loard's Ice Cream"	Food::Ice Cream Shop	37.713512	-122.163269	5
37	115	5	"San Leandro"	"FedEx Office Print & Ship Center"	Shop & Service::Financial or Legal Service	37.7117271347162	-122.162655637184	5
37	115	5	"San Leandro"	"La Salsa Fresh Mexican Grill"	Food::Mexican Restaurant	37.7117326913312	-122.162818908691	5
37	115	5	"San Leandro"	"Panda Express"	Food::Chinese Restaurant	37.7103584036378	-122.163376350033	5
37	115	5	"San Leandro"	"Men's Wearhouse"	Shop & Service::Bridal Shop	37.7102723967684	-122.164989620526	5
37	115	5	"San Leandro"	"San Leandro Honda"	Shop & Service::Automotive Shop	37.7121924743475	-122.163903021754	5
37	115	5	"San Leandro"	"Eddie Bauer Outlet"	Shop & Service::Clothing Store	37.7103746686672	-122.163934707642	5
37	115	5	"San Leandro"	"Bath & Body Works"	Shop & Service::Cosmetics Shop	37.7105207753797	-122.163143504871	5
37	115	5	"San Leandro"	"Pac Sun"	Shop & Service::Clothing Store::Boutique	37.7101879386046	-122.164299488068	5
37	115	5	"San Leandro"	"West Coast Sports"	Shop & Service::Sporting Goods Shop	37.7167647833333	-122.15988465	5
37	115	5	"San Leandro"	"Enterprise Rent a Car"	Travel & Transport::Rental Car Location	37.7138969885116	-122.160190343857	5
37	115	5	"San Leandro"	"The Ford Store - San Leandro / Svc Dept"	Shop & Service::Car Dealership	37.71198	-122.161221766667	5
37	115	5	"San Leandro"	"Taco Bell"	Food::Taco Place	37.71402421297	-122.157366565978	5
37	1964	1	"Oakland"	"Pet Club"	Shop & Service::Pet Store	37.8283831663606	-122.285522575171	4
37	1964	1	"Oakland"	"Granite Expo"	Shop & Service::Hardware Store	37.8253867236383	-122.289930412758	4
37	1964	1	"Oakland"	"Panera Bread"	Food::Bakery	37.8291869509245	-122.28796462837	4
37	1964	1	"Oakland"	"Best Buy"	Shop & Service::Electronics Store	37.8278532569262	-122.286779880524	4
37	1964	1	"Oakland"	"Toys"Я"Us / Babies"Я"Us"	Shop & Service::Toy / Game Store	37.8290057453681	-122.28684425354	4
37	1964	1	"Oakland"	"West Oakland"	Outdoors & Recreation::Other Great Outdoors	37.822600715461	-122.283606548592	4
37	1964	1	"Oakland"	"Best Buy"	Shop & Service::Electronics Store	37.8278532569262	-122.286779880524	4
37	1964	1	"Oakland"	"Target"	Shop & Service::Department Store	37.8284040808537	-122.288936376572	4
37	1964	1	"Oakland"	"IKEA Parking Lot"	Professional & Other Places::Parking	37.8304370710547	-122.292355752978	4
37	1964	1	"Oakland"	"Babies "R" Us"	Shop & Service::Department Store	37.82887668	-122.286865	4
37	1964	1	"Oakland"	"Office Depot"	Shop & Service::Paper / Office Supplies Store	37.828397	-122.285623	4
37	1964	1	"Oakland"	"Starbucks"	Food::Café	37.8282578647413	-122.289005668011	4
37	1964	1	"Oakland"	"Hydraulic Hose Service	Professional & Other Places::Building	37.82507	-122.284235	4
37	1964	1	"Oakland"	"Happy Hound"	Shop & Service::Pet Store	37.8246278550847	-122.290384476097	4
37	1964	1	"Oakland"	"St Louise Studios"	Shop & Service::Design Studio	37.826195	-122.285405	4
37	1964	1	"Oakland"	"Pottery And Beyond"	Shop & Service::Flower Shop	37.829541	-122.289251	4
37	1964	1	"Oakland"	"Sweet Treat Stop"	Food::Cupcake Shop	37.828482	-122.286961	4
37	4202	0	"Pittsburgh"	"Clearview Federal Credit Union"	Shop & Service::Bank	40.4542089245004	-80.1677550898993	2
37	4202	0	"Pittsburgh"	"Max & Erma's"	Food::American Restaurant	40.4516865120301	-80.1757711172104	2
37	4202	0	"Pittsburgh"	"Abercrombie & Fitch"	Shop & Service::Clothing Store	40.4542345160362	-80.1572085902633	2
37	4202	0	"Pittsburgh"	"Red Lobster"	Food::Seafood Restaurant	40.4513149802258	-80.1606588285435	2
37	4202	0	"Pittsburgh"	"Don Pablo's"	Food::Mexican Restaurant	40.4518651024322	-80.1767621934414	2
37	4202	0	"Pittsburgh"	"Steak 'n Shake"	Food::American Restaurant	40.4527845953808	-80.1657603477937	2
37	4202	0	"Pittsburgh"	"Subway"	Shop & Service::Food & Drink Shop::Food Court	40.4536992934169	-80.1575846893406	2
37	4202	0	"Pittsburgh"	"Heritage Valley Family Practice"	Professional & Other Places::Medical Center::Doctor's Office	40.449577331543	-80.1637420654297	2
37	4202	0	"Pittsburgh"	"Forever 21"	Shop & Service::Clothing Store	40.4551107796215	-80.157339407521	2
37	4202	0	"Pittsburgh"	"The Bus Stop @IKEA"	Travel & Transport::Bus Station	40.4533538818359	-80.167610168457	2
37	4202	0	"Pittsburgh"	"Westpointe Apartments"	Professional & Other Places::Building	40.4513893127441	-80.1520004272461	2
37	4202	0	"Pittsburgh"	"Walmart Supercenter"	Shop & Service::Department Store	40.4473063062891	-80.1763558387756	2
37	4202	0	"Pittsburgh"	"NY&C"	Shop & Service::Clothing Store::Women's Store	40.453570808715	-80.1578953786365	2
37	4202	0	"Pittsburgh"	"Subway"	Food::Sandwich Place	40.4489707946777	-80.1605377197266	2
37	4202	0	"Pittsburgh"	"Chipotle Mexican Grill"	Food::Burrito Place	40.4490409773164	-80.1746382278899	2
37	4202	0	"Pittsburgh"	"Staples"	Shop & Service::Paper / Office Supplies Store	40.4479411563031	-80.1616671657596	2
37	4202	0	"Pittsburgh"	"Kirkland's"	Shop & Service::Furniture / Home Store	40.4535522333333	-80.168077	2
37	4202	0	"Pittsburgh"	"The Home Depot"	Shop & Service::Hardware Store	40.4528254003994	-80.1829862594604	2
37	4202	0	"Pittsburgh"	"Boston Market"	Food::American Restaurant	40.4502512385485	-80.1734175059174	2
37	4202	0	"Pittsburgh"	"Bayer"	Professional & Other Places::Office::Coworking Space	40.4436167825466	-80.1622885135874	2
37	4202	0	"Pittsburgh"	"jcpenney"	Shop & Service::Department Store	40.453196	-80.168478	2
37	4202	0	"Pittsburgh"	"Petland"	Shop & Service::Pet Store	40.4542109833333	-80.164342	2
37	4202	0	"Pittsburgh"	"Lowe's Home Improvement"	Shop & Service::Hardware Store	40.4506178618865	-80.1715482416123	2
37	4202	0	"Pittsburgh"	"Mens Warehouse"	Shop & Service::Clothing Store::Men's Store	40.4552787564226	-80.1618088770648	2
37	4202	0	"Pittsburgh"	"Dollar Tree"	Shop & Service::Miscellaneous Shop	40.4541250112251	-80.1634984937782	2
37	4202	0	"Pittsburgh"	"Cracker Barrel"	Food::American Restaurant	40.4498786719619	-80.1733466599105	2
37	4202	0	"Pittsburgh"	"GameStop"	Shop & Service::Video Game Store	40.4481227688946	-80.1801109313965	2
37	4202	0	"Pittsburgh"	"HomeGoods"	Shop & Service::Furniture / Home Store	40.4536512682901	-80.1693464901284	2
37	4202	0	"Pittsburgh"	"Five Guys"	Food::Burger Joint	40.4487947583672	-80.1750196999309	2
37	4202	0	"Pittsburgh"	"Burger King"	Food::Fast Food Restaurant	40.450453	-80.1822352409363	2
37	4202	0	"Pittsburgh"	"IHOP"	Food::Breakfast Spot	40.4565113476247	-80.1693338155746	2
37	4202	0	"Pittsburgh"	"Bayer Corporation"	Professional & Other Places::Office	40.4431800842285	-80.1640014648438	2
37	4202	0	"Pittsburgh"	"LensCrafters"	Shop & Service::Miscellaneous Shop	40.4554595947266	-80.1584625244141	2
37	4202	0	"Pittsburgh"	"PNC Bank"	Shop & Service::Bank	40.4535889526308	-80.1604517091581	2
37	4202	0	"Pittsburgh"	"Best Buy"	Shop & Service::Electronics Store	40.4524008707907	-80.1815700531006	2
37	4202	0	"Pittsburgh"	"Mad Mex"	Food::Mexican Restaurant	40.4489228926251	-80.1645112037659	2
37	4202	0	"Pittsburgh"	"Dick's Sporting Goods"	Shop & Service::Sporting Goods Shop	40.450868	-80.161446	2
37	4202	0	"Pittsburgh"	"hhgregg"	Shop & Service::Department Store	40.4471113589354	-80.1808396621656	2
37	4202	0	"Pittsburgh"	"H&M"	Shop & Service::Clothing Store	40.4535156207058	-80.1574920274024	2
37	4202	0	"Pittsburgh"	"Mall At robinson"	Shop & Service::Mall	40.4544715881348	-80.1590805053711	2
37	4202	0	"Pittsburgh"	"Chick-fil-A"	Food::Fast Food Restaurant	40.4536758053831	-80.1576282949238	2
37	4202	0	"Pittsburgh"	"Applebee's Neighborhood Grill"	Food::American Restaurant	40.4491291727933	-80.1620595964915	2
37	4202	0	"Pittsburgh"	"Denny's"	Food::American Restaurant	40.4486543592199	-80.1569742088432	2
37	4202	0	"Pittsburgh"	"Express"	Shop & Service::Design Studio	40.4540466553586	-80.1572412945964	2
37	4202	0	"Pittsburgh"	"Candlewood Suites"	Travel & Transport::Hotel	40.449085	-80.1831096410751	2
37	4202	0	"Pittsburgh"	"Kirkland's"	Shop & Service::Furniture / Home Store	40.453607854108	-80.1689976926123	2
37	4202	0	"Pittsburgh"	"Get Inked"	Shop & Service::Clothing Store::Boutique	40.4543275605561	-80.1586961746216	2
37	4202	0	"Pittsburgh"	"Wendy's"	Food::Fast Food Restaurant	40.44740927	-80.1534937166667	2
37	4202	0	"Pittsburgh"	"Banfield Pet Hospital"	Professional & Other Places::Medical Center::Veterinarian	40.4510858066218	-80.1818423122515	2
37	4202	0	"Pittsburgh"	"Kitchen Collection"	Shop & Service::Mall	40.4544454581622	-80.1574157174957	2
37	4202	0	"Pittsburgh"	"McDonald's"	Food::Fast Food Restaurant	40.4480209350586	-80.1759643554688	2
37	4202	0	"Pittsburgh"	"L.A. Studio Nails"	Shop & Service::Cosmetics Shop	40.4552902682595	-80.1616671657596	2
37	4202	0	"Pittsburgh"	"SpringHill Suites by Marriott Pittsburgh Airport"	Travel & Transport::Hotel	40.4482958694119	-80.1784256248225	2
37	4202	0	"Pittsburgh"	"Bahama Breeze"	Food::Caribbean Restaurant	40.4507027255355	-80.1595115661621	2
37	4202	0	"Pittsburgh"	"Pro Image"	Shop & Service::Sporting Goods Shop	40.4537056681224	-80.1574484217498	2
37	4202	0	"Pittsburgh"	"Hyatt Place Pittsburgh Airport"	Travel & Transport::Hotel	40.4458539393571	-80.1609640561978	2
37	4202	0	"Pittsburgh"	"Puffs and Stuff"	Shop & Service::Smoke Shop	40.454418182373	-80.1571807861328	2
37	4202	0	"Pittsburgh"	"GFS Marketplace"	Shop & Service::Food & Drink Shop::Grocery Store	40.4575113759529	-80.1662814617157	2
37	4202	0	"Pittsburgh"	"The Children's Place"	Shop & Service::Clothing Store::Kids Store	40.4538383483887	-80.1571731567383	2
37	4202	0	"Pittsburgh"	"77Kids by American Eagle"	Shop & Service::Department Store	40.4543943593863	-80.1573503089502	2
37	4202	0	"Pittsburgh"	"Comcast"	Professional & Other Places::Building	40.4544581815914	-80.1911187171936	2
37	4202	0	"Pittsburgh"	"FedEx Office Print & Ship Center"	Shop & Service::Design Studio	40.447792	-80.180603	2
37	4202	0	"Pittsburgh"	"Residence Inn Pittsburgh Airport Coraopolis"	Travel & Transport::Hotel	40.4562198058909	-80.188266622282	2
37	4202	0	"Pittsburgh"	"MainStay Suites Pittsburgh Airport"	Travel & Transport::Hotel	40.4555547237396	-80.19115	2
37	4202	0	"Pittsburgh"	"Microtel Inn and Suites"	Travel & Transport::Hotel	40.4480912959237	-80.1821692608216	2
37	4202	0	"Pittsburgh"	"jcpenney"	Shop & Service::Department Store	40.453196	-80.168478	2
37	4202	0	"Pittsburgh"	"GameStop"	Shop & Service::Video Game Store	40.4540336622982	-80.1683950424194	2
37	4202	0	"Pittsburgh"	"Valvoline Instant Oil Change"	Shop & Service::Automotive Shop	40.458309173584	-80.1675262451172	2
37	4202	0	"Pittsburgh"	"DiBella's Old Fashioned Submarines"	Food::American Restaurant	40.448157	-80.158571	2
37	4202	0	"Pittsburgh"	"Ya Fei Chinese Cuisine"	Food::Chinese Restaurant	40.4539185762405	-80.168629	2
37	4202	0	"Pittsburgh"	"Aerie"	Shop & Service::Clothing Store::Women's Store	40.4507026672363	-80.1582717895508	2
37	4202	0	"Pittsburgh"	"Chick Fil A At Robinson (Stand-alone)"	Food::Fast Food Restaurant	40.4578323364258	-80.1680603027344	2
37	4202	0	"Pittsburgh"	"All Star Sports Bar & Grill"	Nightlife Spot::Sports Bar	40.4530866480563	-80.1603698730469	2
37	4202	0	"Pittsburgh"	"Burgatory"	Food::Burger Joint	40.4490802611822	-80.1742022577582	2
37	4202	0	"Pittsburgh"	"Joe's Crab Shack"	Food::Seafood Restaurant	40.4544663453977	-80.1617860794067	2
37	4202	0	"Pittsburgh"	"Target"	Shop & Service::Department Store	40.4462448900738	-80.1836514472961	2
37	4202	0	"Pittsburgh"	"American Eagle Outfitters"	Shop & Service::Clothing Store	40.453748651386	-80.1574266189152	2
37	4202	0	"Pittsburgh"	"T.J. Maxx"	Shop & Service::Clothing Store	40.4542949052576	-80.1648759841919	2
37	4202	0	"Pittsburgh"	"Bath & Body Works"	Professional & Other Places::Office::Coworking Space	40.4541803593415	-80.1657330968964	2
37	4202	0	"Pittsburgh"	"Bed Bath & Beyond"	Shop & Service::Furniture / Home Store	40.4463755268202	-80.1792311668396	2
37	4202	0	"Pittsburgh"	"Ronak's Cube"	Professional & Other Places::Office	40.4543262720108	-80.188902	2
37	4202	0	"Pittsburgh"	"Latitude 40"	Nightlife Spot::Bar	40.4459499104033	-80.1771232151744	2
37	4202	0	"Pittsburgh"	"Seegrid Corporation"	Professional & Other Places::Building	40.4578170776367	-80.1996612548828	2
37	4202	0	"Pittsburgh"	"Cold Stone Creamery"	Food::Ice Cream Shop	40.4550819396973	-80.1616592407227	2
37	4202	0	"Pittsburgh"	"Chick-fil-A"	Food::Fast Food Restaurant	40.4536758053831	-80.1576282949238	2
37	4202	0	"Pittsburgh"	"Aeropostale"	Shop & Service::Clothing Store::Women's Store	40.4535382556675	-80.157770012916	2
37	4202	0	"Pittsburgh"	"DSW Designer Shoe Warehouse"	Shop & Service::Miscellaneous Shop	40.452372	-80.169951	2
37	4202	0	"Pittsburgh"	"Loving Hut Vegan Cuisine"	Food::Vegetarian / Vegan Restaurant	40.4462420940399	-80.1584449666667	2
37	4202	0	"Pittsburgh"	"Holiday Inn Express Hotel & Suites"	Travel & Transport::Hotel	40.4434287042881	-80.1596559300152	2
37	4202	0	"Pittsburgh"	"Ace's Break Away And Play"	Arts & Entertainment::Arcade	40.4527060544055	-80.1563364701035	2
37	4202	0	"Pittsburgh"	"Best Buy"	Shop & Service::Electronics Store	40.4524008707907	-80.1815700531006	2
37	4202	0	"Pittsburgh"	"Robinson Town Centre"	Shop & Service::Mall	40.453135326867	-80.1634603415109	2
37	4202	0	"Pittsburgh"	"Mens Warehouse"	Shop & Service::Clothing Store::Men's Store	40.4552787564226	-80.1618088770648	2
37	4202	0	"Pittsburgh"	"Golden Corral"	Food::American Restaurant	40.4515139	-80.1561480760574	2
37	4202	0	"Pittsburgh"	"Philip Pelusi Salons"	Shop & Service::Salon / Barbershop	40.4555692137021	-80.1571867873675	2
37	4202	0	"Pittsburgh"	"Smoky Bones"	Food::BBQ Joint	40.4522399902344	-80.1641693115234	2
37	4202	0	"Pittsburgh"	"Sears"	Shop & Service::Department Store	40.451671	-80.1577	2
37	4202	0	"Pittsburgh"	"Harbor Freight Tools"	Shop & Service::Hardware Store	40.4417540975355	-80.1568454504013	2
37	4202	0	"Pittsburgh"	"Aldo Shoes"	::Shop & Service	40.4546239081356	-80.1572140409863	2
37	4202	0	"Pittsburgh"	"Coldstone Creamery"	Food::Ice Cream Shop	40.4522399902344	-80.1641693115234	2
37	4202	0	"Pittsburgh"	"Nikos Coffee House"	Food::Coffee Shop	40.4489817994349	-80.1598139963242	2
37	4202	0	"Pittsburgh"	"Once Upon a Child Robinson"	Shop & Service::Clothing Store::Kids Store	40.4542388916016	-80.1678161621094	2
37	4202	0	"Pittsburgh"	"TGIFriday's"	Food::American Restaurant	40.4508895874023	-80.1614379882812	2
37	4202	0	"Pittsburgh"	"Picture People"	Shop & Service::Design Studio	40.454613527894	-80.1583423331898	2
37	4202	0	"Pittsburgh"	"Pier 1 Imports"	Shop & Service::Furniture / Home Store	40.4498658666667	-80.17481	2
37	4202	0	"Pittsburgh"	"Old Navy"	Shop & Service::Department Store	40.4457999067507	-80.1784157752991	2
37	4202	0	"Pittsburgh"	"Ichiban Steakhouse"	Food::Steakhouse	40.45356	-80.16275	2
37	4202	0	"Pittsburgh"	"Auntie Anne's Pretzels"	Food::American Restaurant	40.4536361694336	-80.1575088500977	2
37	4202	0	"Pittsburgh"	"Fifth Third Bank"	Professional & Other Places::Building	40.4484521855772	-80.1562656099503	2
37	4202	0	"Pittsburgh"	"Master Cuts"	Shop & Service::Salon / Barbershop	40.4535162288819	-80.1577373087847	2
37	4202	0	"Pittsburgh"	"Guitar Center"	Shop & Service::Music Store	40.4524632363091	-80.1628553532845	2
37	4202	0	"Pittsburgh"	"Cracker Barrel"	Food::American Restaurant	40.4498786719619	-80.1733466599105	2
37	4202	0	"Pittsburgh"	"Victoria's Secret PINK"	Shop & Service::Clothing Store::Lingerie Store	40.4553657332321	-80.1582387707571	2
37	4202	0	"Pittsburgh"	"Olive Garden"	Food::Italian Restaurant	40.4503439785406	-80.1616126613489	2
37	4202	0	"Pittsburgh"	"Starbucks"	Food::Coffee Shop	40.4543232003777	-80.1571867873675	2
37	4202	0	"Pittsburgh"	"GNC"	Shop & Service::Miscellaneous Shop	40.4543190002441	-80.1584320068359	2
37	4202	0	"Pittsburgh"	"Carino's Italian Grill"	Food::Italian Restaurant	40.4566387955139	-80.1683872935357	2
37	4202	0	"Pittsburgh"	"Smokey Bones Bar & Fire Grill"	Food::American Restaurant	40.4504986186496	-80.1605415344238	2
37	4202	0	"Pittsburgh"	"Bob Evans Restaurant"	Food::American Restaurant	40.4480448888783	-80.158990958208	2
37	4202	0	"Pittsburgh"	"Quaker Steak & Lube"	Food::Wings Joint	40.4505149472233	-80.1757764816284	2
37	4202	0	"Pittsburgh"	"Golf Galaxy"	Shop & Service::Sporting Goods Shop	40.4491747599729	-80.1613782919876	2
37	4202	0	"Pittsburgh"	"InstaTan"	Shop & Service::Salon / Barbershop	40.44796	-80.15493	2
37	4202	0	"Pittsburgh"	"Oncology Nursing Society"	Professional & Other Places::Office	40.4645347595215	-80.1997146606445	2
37	4202	0	"Pittsburgh"	"GameStop"	Shop & Service::Gaming Cafe	40.4528254003994	-80.159854888916	2
37	4202	0	"Pittsburgh"	"Zumiez"	Shop & Service::Clothing Store	40.4542580834357	-80.1572685481979	2
37	4202	0	"Pittsburgh"	"Chick-fil-A"	Food::Fast Food Restaurant	40.457658	-80.16789986	2
37	4202	0	"Pittsburgh"	"Golden Corral"	Food::Restaurant	40.4517288208008	-80.1610870361328	2
37	4202	0	"Pittsburgh"	"Sephora"	Shop & Service::Cosmetics Shop	40.4532265663147	-80.1641035079956	2
37	4202	0	"Pittsburgh"	"Finish Line"	Shop & Service::Clothing Store::Shoe Store	40.453667	-80.157585	2
37	4202	0	"Pittsburgh"	"Sheetz"	Shop & Service::Gas Station / Garage	40.4478756	-80.157646	2
37	4202	0	"Pittsburgh"	"Toys"R"Us"	Shop & Service::Toy / Game Store	40.4517245591017	-80.1669975293871	2
37	4202	0	"Pittsburgh"	"Quaker State And Lube"	Food::Wings Joint	40.4509963989258	-80.1749954223633	2
37	4202	0	"Pittsburgh"	"Thermo Fisher Scientific"	Professional & Other Places::Office	40.454247	-80.18846	2
37	4202	0	"Pittsburgh"	"Masquerade"	Shop & Service::Clothing Store::Lingerie Store	40.4520644333333	-80.165211	2
37	4202	0	"Pittsburgh"	"Starbucks"	Food::Coffee Shop	40.4481186866063	-80.1794135570526	2
37	4202	0	"Pittsburgh"	"Pearle vision"	Professional & Other Places::Medical Center::Doctor's Office	40.453187298039	-80.1649700682476	2
37	4202	0	"Pittsburgh"	"starbucks - north fayette"	Food::Coffee Shop	40.452508	-80.178719	2
37	4202	0	"Pittsburgh"	"Kohl's"	Shop & Service::Department Store	40.4473699	-80.159912	2
37	4202	0	"Pittsburgh"	"Ya Fei"	Food::Japanese Restaurant	40.4535675048828	-80.1684036254883	2
37	4202	0	"Pittsburgh"	"BRAVO! Cucina Italiana"	Food::Italian Restaurant	40.4484452688912	-80.1807224750519	2
37	4202	0	"Pittsburgh"	"L.a. Studio"	Shop & Service::Salon / Barbershop	40.4505920037968	-80.1625174300709	2
37	4202	0	"Pittsburgh"	"Extended Stay Deluxe"	Travel & Transport::Hotel	40.4498862942726	-80.1841449737549	2
37	4202	0	"Pittsburgh"	"Eat'nPark"	Food::Restaurant	40.4485511779785	-80.1620254516602	2
37	4202	0	"Pittsburgh"	"Marquis Plaza"	Professional & Other Places::Office	40.4439423488683	-80.1604789617375	2
37	4202	0	"Pittsburgh"	"Moe's Southwest Grill"	Food::Mexican Restaurant	40.4473063062891	-80.1577091217041	2
37	4202	0	"Pittsburgh"	"McDonald's"	Food::American Restaurant	40.4483443846907	-80.1556605708697	2
37	4202	0	"Pittsburgh"	"Lone Star Steakhouse"	Food::Steakhouse	40.4509773666667	-80.17512561	2
37	4202	0	"Pittsburgh"	"Longhorn Steakhouse"	Food::Steakhouse	40.4513558634043	-80.1617860794067	2
37	4202	0	"Pittsburgh"	"Ichiban Hibachi Steakhouse & Sushi Bar"	Food::Japanese Restaurant	40.453554	-80.162708	2
37	4202	0	"Pittsburgh"	"Levin Furniture"	Shop & Service::Furniture / Home Store	40.4495188969684	-80.1845580339432	2
37	4202	0	"Pittsburgh"	"Pizza Milano"	Food::Pizza Place	40.4494509333333	-80.161783	2
37	4202	0	"Pittsburgh"	"FedEx Office Print & Ship Center"	Shop & Service::Design Studio	40.447792	-80.180603	2
37	4202	0	"Pittsburgh"	"Uncle Sam's Sandwich Bar"	Food::Sandwich Place	40.4480433440262	-80.1794337525502	2
37	4202	0	"Pittsburgh"	"Buca di Beppo"	Food::Italian Restaurant	40.45503	-80.16148	2
37	4202	0	"Pittsburgh"	"Value City Furniture"	Shop & Service::Furniture / Home Store	40.4545666241538	-80.1636317620647	2
37	4202	0	"Pittsburgh"	"Bath & Body Works"	Professional & Other Places::Office::Coworking Space	40.4541803593415	-80.1657330968964	2
37	4202	0	"Pittsburgh"	"David's Bridal"	Shop & Service::Bridal Shop	40.4555207072018	-80.1617271205712	2
37	4202	0	"Pittsburgh"	"PetSmart"	Shop & Service::Pet Store	40.4511263801798	-80.1816624900044	2
37	4202	0	"Pittsburgh"	"Lowe's Home Improvement"	Shop & Service::Hardware Store	40.4506178618865	-80.1715482416123	2
37	4202	0	"Pittsburgh"	"Buffalo Wild Wings"	Food::Wings Joint	40.4509945973052	-80.1832276582718	2
37	4202	0	"Pittsburgh"	"Ymca"	Shop & Service::Gym / Fitness Center::Gym	40.4659241437912	-80.159494	2
37	4202	0	"Pittsburgh"	"Philip Pelusi Salons"	Shop & Service::Salon / Barbershop	40.4555692137021	-80.1571867873675	2
37	4202	0	"Pittsburgh"	"Ditka's"	Food::Steakhouse	40.4481887060784	-80.1628117503642	2
37	4202	0	"Pittsburgh"	"Eat'n Park"	Food::American Restaurant	40.4492657998793	-80.1606273651123	2
37	4202	0	"Pittsburgh"	"Guitar Center"	Shop & Service::Music Store	40.4524632363091	-80.1628553532845	2
37	4202	0	"Pittsburgh"	"PNC Bank"	Shop & Service::Bank	40.4526580380854	-80.1707983016968	2
37	4202	0	"Pittsburgh"	"ALDI"	Shop & Service::Food & Drink Shop::Grocery Store	40.457296450375	-80.1671773824902	2
37	4202	0	"Pittsburgh"	"Panera Bread"	Food::Bakery	40.4492976989699	-80.1744474912309	2
37	4202	0	"Pittsburgh"	"Audreys Attic"	Shop & Service::Gift Shop	40.4538862021056	-80.1572630974783	2
37	4202	0	"Pittsburgh"	"Deb Shops"	Shop & Service::Clothing Store::Women's Store	40.4544500177841	-80.1668179035187	2
37	4202	0	"Pittsburgh"	"United States Post Office"	Professional & Other Places::Post Office	40.4540956020355	-80.168197	2
37	4202	0	"Pittsburgh"	"PetSmart"	Shop & Service::Pet Store	40.4511263801798	-80.1816624900044	2
37	4202	0	"Pittsburgh"	"First Commonwealth Bank"	Shop & Service::Bank	40.4502455252503	-80.1633310317993	2
37	4202	0	"Pittsburgh"	"jcpenney"	Shop & Service::Department Store	40.453196	-80.168478	2
